var Stops = Stops || {};Stops['3'] = [{"name":"Castle Street","code":"36232545","latitude":"55.9510841369629","longitude":"-3.20176601409912","service_numbers":["1","3","4","22","25","X25","30","33","34","44","44A","X44","N22","N25","N30","N34","N44"]},{"name":"South Charlotte","code":"36232546","latitude":"55.9506454467773","longitude":"-3.2043309211731","service_numbers":["3","4","25","X25","33","44","44A","X44","N25","N44"]},{"name":"Parkhead Drive","code":"36232586","latitude":"55.925407409668","longitude":"-3.26759791374207","service_numbers":["3","25","30","33","34","38","109","N30","N34"]},{"name":"Longstone Terrac","code":"36232587","latitude":"55.9257469177246","longitude":"-3.26936888694763","service_numbers":["3","30","33","34","109","N30","N34"]},{"name":"Longstone Road","code":"36232589","latitude":"55.9269027709961","longitude":"-3.26889491081238","service_numbers":["3","25","30","33","35","N25","N30"]},{"name":"Saughton Prison","code":"36232592","latitude":"55.929630279541","longitude":"-3.2607090473175","service_numbers":["3","25","30","33","35","N25","N30"]},{"name":"Stenhouse","code":"36232593","latitude":"55.9299125671387","longitude":"-3.25748491287231","service_numbers":["3","25","30","33","35","N25","N30"]},{"name":"Stenhouse Mill","code":"36232594","latitude":"55.9297523498535","longitude":"-3.25751209259033","service_numbers":["3","25","30","33","35","N25","N30"]},{"name":"Saughton Prison","code":"36232595","latitude":"55.929744720459","longitude":"-3.2610330581665","service_numbers":["3","25","30","33","35","N25","N30"]},{"name":"Chesser House","code":"36232596","latitude":"55.9319343566895","longitude":"-3.25049090385437","service_numbers":["3","25","30","33","N25","N30"]},{"name":"Chesser Cottages","code":"36232597","latitude":"55.9328575134277","longitude":"-3.24741506576538","service_numbers":["3","25","30","33","N25","N30"]},{"name":"Balgreen Road","code":"36232624","latitude":"55.9343070983887","longitude":"-3.24446797370911","service_numbers":["3","25","33","38","N25"]},{"name":"Westfield Road","code":"36232625","latitude":"55.9365119934082","longitude":"-3.2403290271759","service_numbers":["3","25","33","38","N25"]},{"name":"Smithfield Stree","code":"36232626","latitude":"55.937255859375","longitude":"-3.23532605171204","service_numbers":["1","2","3","25","33","N25"]},{"name":"Tynecastle","code":"36232627","latitude":"55.9383697509766","longitude":"-3.23081398010254","service_numbers":["1","2","3","25","33","N25"]},{"name":"Gorgie City Farm","code":"36232628","latitude":"55.9389419555664","longitude":"-3.22841501235962","service_numbers":["1","2","3","25","33","N25"]},{"name":"Murieston","code":"36232629","latitude":"55.9398422241211","longitude":"-3.22562599182129","service_numbers":["2","3","4","25","33","44","N25","N44"]},{"name":"Springwell Place","code":"36232632","latitude":"55.9415550231934","longitude":"-3.22318196296692","service_numbers":["2","3","4","25","33","44","N25","N44"]},{"name":"Orwell Place","code":"36232634","latitude":"55.943546295166","longitude":"-3.21991395950317","service_numbers":["2","3","4","25","33","44","N25","N44"]},{"name":"Dalry Place","code":"36232635","latitude":"55.9455642700195","longitude":"-3.21735191345215","service_numbers":["2","3","4","25","33","44","N25","N44"]},{"name":"Haymarket Statio","code":"36232658","latitude":"55.9455947875977","longitude":"-3.21717691421509","service_numbers":["2","3","25","33","N25"]},{"name":"Caledonian Villa","code":"36232672","latitude":"55.9425888061523","longitude":"-3.22140502929688","service_numbers":["2","3","4","25","33","44","44A","N25","N44"]},{"name":"Dalry Primary Sc","code":"36232673","latitude":"55.9414024353027","longitude":"-3.22312903404236","service_numbers":["2","3","4","25","33","44","44A","N25","N44"]},{"name":"Murieston Cresce","code":"36232674","latitude":"55.9398536682129","longitude":"-3.22532200813293","service_numbers":["2","3","4","25","33","44","44A","N25","N44"]},{"name":"Gorgie City Farm","code":"36232675","latitude":"55.9388313293457","longitude":"-3.22852396965027","service_numbers":["1","2","3","25","33","N25"]},{"name":"Tynecastle","code":"36232676","latitude":"55.9378776550293","longitude":"-3.23220801353455","service_numbers":["1","2","3","25","33","N25"]},{"name":"Gorgie","code":"36232678","latitude":"55.9373054504395","longitude":"-3.23467111587524","service_numbers":["1","2","3","25","33","N25"]},{"name":"Gorgie Primary S","code":"36232679","latitude":"55.9364128112793","longitude":"-3.24026203155518","service_numbers":["3","25","33","38","N25"]},{"name":"Balgreen Road","code":"36232682","latitude":"55.9340438842773","longitude":"-3.24455595016479","service_numbers":["3","25","33","38","N25"]},{"name":"Chesser House","code":"36232683","latitude":"55.9323120117188","longitude":"-3.24880599975586","service_numbers":["3","25","30","33","N25","N30"]},{"name":"Chesser Cottages","code":"36232684","latitude":"55.932991027832","longitude":"-3.24639511108398","service_numbers":["3","25","30","33","N25","N30"]},{"name":"Chesser Avenue","code":"36232685","latitude":"55.9307403564453","longitude":"-3.25386190414429","service_numbers":["3","25","30","33","35","N25","N30"]},{"name":"Saughton Mains","code":"36232686","latitude":"55.9283218383789","longitude":"-3.26538801193237","service_numbers":["3","25","30","33","35","N25","N30"]},{"name":"North Bridge","code":"36234753","latitude":"55.9518356323242","longitude":"-3.18820905685425","service_numbers":["3","5","8","29","X29","45","N3"]},{"name":"South Bridge","code":"36234756","latitude":"55.9490432739258","longitude":"-3.18681001663208","service_numbers":["3","5","8","14","29","X29","30","33","35","45","49","N3","N30"]},{"name":"Hill Place","code":"36234758","latitude":"55.9458045959473","longitude":"-3.18464493751526","service_numbers":["2","3","5","8","14","29","X29","30","33","49","N3","N30"]},{"name":"East Preston Str","code":"36234784","latitude":"55.9387664794922","longitude":"-3.1790189743042","service_numbers":["3","5","7","8","29","X29","31","X31","37","47","X37","49","N3","N31","N37"]},{"name":"Salisbury Place","code":"36234786","latitude":"55.9377403259277","longitude":"-3.17834806442261","service_numbers":["3","5","7","8","29","X29","31","X31","37","47","X37","49","N3","N31","N37"]},{"name":"St Patrick Squar","code":"36234796","latitude":"55.9431343078613","longitude":"-3.18297910690308","service_numbers":["2","3","5","8","29","X29","30","33","49","N3","N30"]},{"name":"Queens Hall","code":"36234798","latitude":"55.9414138793945","longitude":"-3.18124508857727","service_numbers":["2","3","5","8","29","X29","30","33","49","N3","N30"]},{"name":"Salisbury Road","code":"36234837","latitude":"55.9371299743652","longitude":"-3.17752909660339","service_numbers":["3","7","8","29","X29","31","X31","37","47","X37","49","N3","N31","N37"]},{"name":"Mayfield Terrace","code":"36234838","latitude":"55.9349327087402","longitude":"-3.17526888847351","service_numbers":["3","7","8","29","31","37","47","49","N3","N31","N37"]},{"name":"Peel Terrace","code":"36234839","latitude":"55.9328117370605","longitude":"-3.17307591438293","service_numbers":["3","7","8","29","31","37","47","49","N3","N31","N37"]},{"name":"Crawfurd Road","code":"36234842","latitude":"55.9308547973633","longitude":"-3.17109608650208","service_numbers":["3","7","8","29","31","37","47","49","N3","N31","N37"]},{"name":"East Suffolk Roa","code":"36234843","latitude":"55.9289855957031","longitude":"-3.16919898986816","service_numbers":["3","7","8","29","31","37","47","49","N3","N31","N37"]},{"name":"Lady Road","code":"36234845","latitude":"55.9269218444824","longitude":"-3.167151927948","service_numbers":["3","7","8","29","31","37","47","49","N3","N31","N37"]},{"name":"Lygon Road","code":"36234847","latitude":"55.9270248413086","longitude":"-3.16745901107788","service_numbers":["3","7","8","29","31","37","47","49","N3","N31","N37"]},{"name":"Suffolk Road","code":"36234848","latitude":"55.9287605285645","longitude":"-3.16927194595337","service_numbers":["3","7","8","29","31","37","47","49","N3","N31","N37"]},{"name":"East Savile Road","code":"36234849","latitude":"55.9306755065918","longitude":"-3.17125105857849","service_numbers":["3","7","8","29","31","37","47","49","N3","N31","N37"]},{"name":"West Mayfield","code":"36234852","latitude":"55.9334754943848","longitude":"-3.17413592338562","service_numbers":["3","7","8","29","31","37","47","49","N3","N31","N37"]},{"name":"Middleby Street","code":"36234853","latitude":"55.9346809387207","longitude":"-3.17529296875","service_numbers":["3","7","8","29","31","37","47","49","N3","N31","N37"]},{"name":"Duncan Street","code":"36234854","latitude":"55.9359245300293","longitude":"-3.17653203010559","service_numbers":["3","7","8","29","31","37","47","49","N3","N31","N37"]},{"name":"Montague Street","code":"36234856","latitude":"55.9416694641113","longitude":"-3.18174910545349","service_numbers":["2","3","5","7","8","29","X29","30","31","X31","33","37","47","X37","49","N3","N30","N31","N37"]},{"name":"St Patrick Squar","code":"36234857","latitude":"55.9433174133301","longitude":"-3.18332099914551","service_numbers":["2","3","5","7","8","29","X29","30","31","X31","33","37","47","X37","49","N3","N30","N31","N37"]},{"name":"Parkhead Terrace","code":"36234858","latitude":"55.9259948730469","longitude":"-3.2716178894043","service_numbers":["3","25","34","35","109","N25","N34"]},{"name":"St Josephs Prima","code":"36234859","latitude":"55.9247741699219","longitude":"-3.27663493156433","service_numbers":["3","25","34","35","109","N25","N34"]},{"name":"Sighthill","code":"36234862","latitude":"55.9235076904297","longitude":"-3.28281903266907","service_numbers":["3","21","25","32","34","35","109","N25","N34"]},{"name":"Sighthill Shops","code":"36234863","latitude":"55.9228439331055","longitude":"-3.28761410713196","service_numbers":["3","21","25","X25","32","34","35","109","N25","N34"]},{"name":"Sighthill Cresce","code":"36234894","latitude":"55.919261932373","longitude":"-3.28903198242188","service_numbers":["3","18","21","32"]},{"name":"Calder Gardens","code":"36234928","latitude":"55.9199905395508","longitude":"-3.29004788398743","service_numbers":["3","18","20","21","32"]},{"name":"Glenallan Drive","code":"36234965","latitude":"55.921142578125","longitude":"-3.16065692901611","service_numbers":["3","8","29","N3"]},{"name":"Walter Scott Ave","code":"36234967","latitude":"55.9189147949219","longitude":"-3.15579104423523","service_numbers":["3","8","29","N3"]},{"name":"Claverhouse Driv","code":"36234968","latitude":"55.9177322387695","longitude":"-3.15332293510437","service_numbers":["3","8","29","N3"]},{"name":"Robins Nest","code":"36234969","latitude":"55.9148788452148","longitude":"-3.14898300170898","service_numbers":["3","8","29","N3"]},{"name":"Moredun Institut","code":"36234983","latitude":"55.9116897583008","longitude":"-3.14228105545044","service_numbers":["3","18","29","N3"]},{"name":"Erskine Home","code":"36234985","latitude":"55.9103012084961","longitude":"-3.14007997512817","service_numbers":["3","18","29","N3"]},{"name":"Gilmerton Road","code":"36234986","latitude":"55.9087677001953","longitude":"-3.13686800003052","service_numbers":["3","18","29","N3"]},{"name":"Gilmerton","code":"36234987","latitude":"55.9063949584961","longitude":"-3.13379096984863","service_numbers":["3","18","29","X29","N3"]},{"name":"Candlemakers Par","code":"36234989","latitude":"55.9042358398438","longitude":"-3.12740993499756","service_numbers":["3","29","X29","N3"]},{"name":"Gilmerton Statio","code":"36235232","latitude":"55.9030609130859","longitude":"-3.12387299537659","service_numbers":["3","29","X29","N3"]},{"name":"Melville Grange","code":"36235234","latitude":"55.8998184204102","longitude":"-3.11298298835754","service_numbers":["3","29","X29","N3"]},{"name":"Drum Street","code":"36235235","latitude":"55.9043426513672","longitude":"-3.12848496437073","service_numbers":["3","29","X29","N3"]},{"name":"Gilmerton","code":"36235236","latitude":"55.905330657959","longitude":"-3.13233590126038","service_numbers":["3","29","X29","N3"]},{"name":"Gilmerton","code":"36235237","latitude":"55.9072113037109","longitude":"-3.13493490219116","service_numbers":["3","18","29","X29","N3"]},{"name":"Moredunvale Road","code":"36235238","latitude":"55.9085884094238","longitude":"-3.13683104515076","service_numbers":["3","18","29","N3"]},{"name":"Moredunvale Loan","code":"36235239","latitude":"55.909854888916","longitude":"-3.13960289955139","service_numbers":["3","18","29","N3"]},{"name":"Moredun Institut","code":"36235242","latitude":"55.912166595459","longitude":"-3.14415097236633","service_numbers":["3","8","18","29","N3"]},{"name":"Ellens Glen Road","code":"36235243","latitude":"55.9132385253906","longitude":"-3.14666199684143","service_numbers":["3","8","29","N3"]},{"name":"Robins Nest","code":"36235245","latitude":"55.9151077270508","longitude":"-3.14970898628235","service_numbers":["3","8","29","N3"]},{"name":"Mount Vernon Roa","code":"36235246","latitude":"55.9173698425293","longitude":"-3.15292811393738","service_numbers":["3","8","29","N3"]},{"name":"Walter Scott Ave","code":"36235247","latitude":"55.9187164306641","longitude":"-3.15567302703857","service_numbers":["3","8","29","N3"]},{"name":"Ivanhoe Crescent","code":"36235248","latitude":"55.9195709228516","longitude":"-3.15761804580688","service_numbers":["3","8","29","N3"]},{"name":"Double Hedges Ro","code":"36235249","latitude":"55.9211654663086","longitude":"-3.16092991828918","service_numbers":["3","8","29","N3"]},{"name":"Orrock Park","code":"36235252","latitude":"55.9230842590332","longitude":"-3.16433191299438","service_numbers":["3","8","29","N3"]},{"name":"Nether Liberton","code":"36235253","latitude":"55.9240341186523","longitude":"-3.16634488105774","service_numbers":["3","8","29","N3"]},{"name":"South Bridge","code":"36235878","latitude":"55.949390411377","longitude":"-3.18726897239685","service_numbers":["3","8","29","X29","30","31","X31","33","37","47","X37","N3","N30","N31","N37"]},{"name":"North Bridge","code":"36235892","latitude":"55.9521789550781","longitude":"-3.18868398666382","service_numbers":["3","29","X29","30","31","X31","33","37","47","X37","N3","N30","N31","N37"]},{"name":"Castle Street","code":"36235969","latitude":"55.9509963989258","longitude":"-3.20333290100098","service_numbers":["3","30","31","X31","33","N3","N30","N31"]},{"name":"Lutton Place","code":"36236562","latitude":"55.9404678344727","longitude":"-3.18073606491089","service_numbers":["2","3","5","7","8","29","X29","30","31","X31","33","37","47","X37","49","N3","N30","N31","N37"]},{"name":"Surgeons Hall","code":"36236563","latitude":"55.9457740783691","longitude":"-3.18491697311401","service_numbers":["3","5","7","8","14","29","X29","30","31","X31","33","37","47","X37","49","N3","N30","N31","N37"]},{"name":"Napier Universit","code":"36236876","latitude":"55.9227561950684","longitude":"-3.29009199142456","service_numbers":["3","21","25","X25","32","34","35","109","N25","N34"]},{"name":"Sighthill","code":"36236878","latitude":"55.9233894348145","longitude":"-3.28540802001953","service_numbers":["3","21","25","X25","32","34","35","109","N25","N34"]},{"name":"Broomhouse","code":"36236879","latitude":"55.9243965148926","longitude":"-3.27947211265564","service_numbers":["3","25","34","35","109","N25","N34"]},{"name":"St Josephs Schoo","code":"36236892","latitude":"55.9251556396484","longitude":"-3.27618408203125","service_numbers":["3","25","34","35","109","N25","N34"]},{"name":"Parkhead Drive","code":"36237437","latitude":"55.9247436523438","longitude":"-3.26765608787537","service_numbers":["3","18","30","33","N30"]},{"name":"Parkhead Drive","code":"36237438","latitude":"55.924388885498","longitude":"-3.2678370475769","service_numbers":["3","18","30","33","N30"]},{"name":"Murrayburn Park","code":"36237453","latitude":"55.917652130127","longitude":"-3.28160190582275","service_numbers":["3","18","20","21","30","32","33"]},{"name":"Murrayburn Place","code":"36237459","latitude":"55.9175186157227","longitude":"-3.28236508369446","service_numbers":["3","18","20","21","30","32","33","N30"]},{"name":"Harvesters Way","code":"36237469","latitude":"55.9119911193848","longitude":"-3.27728700637817","service_numbers":["3","18","20","21","30","32"]},{"name":"Westside Plaza","code":"36237479","latitude":"55.9164047241211","longitude":"-3.28584909439087","service_numbers":["3","18","20","21","32"]},{"name":"Clovenstone Driv","code":"36237483","latitude":"55.910041809082","longitude":"-3.27375102043152","service_numbers":["3","30","N30"]},{"name":"Clovenstone Gard","code":"36237484","latitude":"55.9131546020508","longitude":"-3.27071809768677","service_numbers":["3","30","N30"]},{"name":"Lady Road","code":"36237843","latitude":"55.9258193969727","longitude":"-3.16686296463013","service_numbers":["3","7","8","29","X29","31","37","47","X37","N3","N31","N37"]},{"name":"Lady Road","code":"36237845","latitude":"55.9258728027344","longitude":"-3.16665601730347","service_numbers":["3","7","8","29","X29","31","37","47","X37","N3","N31","N37"]},{"name":"Royal Scottish A","code":"36237983","latitude":"55.9520874023438","longitude":"-3.19571208953857","service_numbers":["1","3","4","22","25","30","33","34","44","44A","N16","N22","N25","N26","N30","N34","N37","N44"]},{"name":"Wester Hailes Pa","code":"36238293","latitude":"55.9142646789551","longitude":"-3.27651405334473","service_numbers":["3","18","20","21","32"]},{"name":"Moredun Park Roa","code":"36238429","latitude":"55.9130592346191","longitude":"-3.14582490921021","service_numbers":["3","29","N3"]},{"name":"Gilmerton Statio","code":"36238432","latitude":"55.9028015136719","longitude":"-3.12408900260925","service_numbers":["3","29","X29","N3"]},{"name":"Drum Street","code":"36238434","latitude":"55.905086517334","longitude":"-3.13137006759644","service_numbers":["3","29","X29","N3"]},{"name":"City bypass","code":"36238435","latitude":"55.9001502990723","longitude":"-3.11393690109253","service_numbers":["3","29","X29","N3"]},{"name":"Saughton Mains A","code":"36239469","latitude":"55.9285545349121","longitude":"-3.26565194129944","service_numbers":["3","25","30","33","35","N25","N30"]},{"name":"Liberton Road","code":"36242362","latitude":"55.924072265625","longitude":"-3.16615390777588","service_numbers":["3","8","29","N3"]},{"name":"Orrock Park","code":"36242368","latitude":"55.9233169555664","longitude":"-3.16454696655273","service_numbers":["3","8","29","N3"]},{"name":"Chesser Avenue","code":"36242373","latitude":"55.9318771362305","longitude":"-3.25020098686218","service_numbers":["3","25","30","33","N25","N30"]},{"name":"Scott Monument","code":"36243246","latitude":"55.9523963928223","longitude":"-3.19530510902405","service_numbers":["3","29","X29","30","33"]},{"name":"Royal Infirmary","code":"36243867","latitude":"55.921215057373","longitude":"-3.13649606704712","service_numbers":["3","7","18","21","30","38"]},{"name":"Hailesland Place","code":"36245293","latitude":"55.9167976379395","longitude":"-3.27899694442749","service_numbers":["3","18","20","21","32","N30"]},{"name":"Hailesland Place","code":"36245297","latitude":"55.9168891906738","longitude":"-3.27884006500244","service_numbers":["3","18","20","21","32"]},{"name":"Clovenstone Driv","code":"36247287","latitude":"55.9101409912109","longitude":"-3.27260303497314","service_numbers":["3","30","N30"]},{"name":"Clovenstone Driv","code":"36247324","latitude":"55.9132347106934","longitude":"-3.2752799987793","service_numbers":["3","30","N30"]},{"name":"Westside Plaza","code":"36247454","latitude":"55.9165000915527","longitude":"-3.2859320640564","service_numbers":["3","18","20","21","32"]},{"name":"Wester Hailes Pa","code":"36248678","latitude":"55.9140815734863","longitude":"-3.2768280506134","service_numbers":["3","18","20","21","32","N30"]},{"name":"The Exchange","code":"36253298","latitude":"55.9476852416992","longitude":"-3.20837092399597","service_numbers":["3","4","12","25","26","31","33","44","44A","N25","N26","N44"]},{"name":"Morrison Link","code":"36253423","latitude":"55.9456024169922","longitude":"-3.21445488929749","service_numbers":["3","4","25","33","44","44A","N25","N44"]},{"name":"Morrison Link","code":"36253573","latitude":"55.9457321166992","longitude":"-3.21418690681458","service_numbers":["3","4","25","33","44","N3","N25","N44"]},{"name":"Caledonian Hotel","code":"36253574","latitude":"55.9497833251953","longitude":"-3.20705890655518","service_numbers":["3","30","33","N3","N30"]},{"name":"Palmerston Place","code":"36253575","latitude":"55.9474601745605","longitude":"-3.2159059047699","service_numbers":["3","12","X12","26","X26","31","X31","42","X44","C134","N26"]},{"name":"Powdermill Brae","code":"64323257","latitude":"55.8371925354004","longitude":"-3.04500699043274","service_numbers":["3","29","X29","33","N3"]},{"name":"Powdermill Brae","code":"64323258","latitude":"55.8386192321777","longitude":"-3.04632306098938","service_numbers":["3","29","X29","33","N3"]},{"name":"Birkenside termi","code":"64323259","latitude":"55.8355712890625","longitude":"-3.04648089408875","service_numbers":["3","29","X29","33","N3"]},{"name":"Melville Castle","code":"64323423","latitude":"55.8950996398926","longitude":"-3.0940899848938","service_numbers":["3","N3"]},{"name":"Bruce Gardens","code":"64323476","latitude":"55.8908042907715","longitude":"-3.0570011138916","service_numbers":["3","33","N3"]},{"name":"Bruce Gardens","code":"64323478","latitude":"55.8905715942383","longitude":"-3.05683493614197","service_numbers":["3","33","N3"]},{"name":"Buccleuch Street","code":"64323479","latitude":"55.8927917480469","longitude":"-3.07058310508728","service_numbers":["3","33","39","N3"]},{"name":"Croft Street","code":"64323482","latitude":"55.8927955627441","longitude":"-3.0730140209198","service_numbers":["3","39","40","49","N3"]},{"name":"Dobbies Garden C","code":"64323484","latitude":"55.8968505859375","longitude":"-3.10120797157288","service_numbers":["3","29","X29","N3"]},{"name":"Dobbies Garden C","code":"64323485","latitude":"55.8968238830566","longitude":"-3.10018396377563","service_numbers":["3","29","X29","N3"]},{"name":"Eskbank Toll","code":"64323486","latitude":"55.8887634277344","longitude":"-3.08001804351807","service_numbers":["3","39","40","49","N3"]},{"name":"Glenesk Crescent","code":"64323489","latitude":"55.8904228210449","longitude":"-3.07729697227478","service_numbers":["3","39","40","49","N3"]},{"name":"Glenesk Crescent","code":"64323492","latitude":"55.8896980285645","longitude":"-3.07909989356995","service_numbers":["3","39","40","49","N3"]},{"name":"Hepburn Drive","code":"64323493","latitude":"55.8889961242676","longitude":"-3.05007696151733","service_numbers":["3","33","N3"]},{"name":"Hepburn Drive","code":"64323494","latitude":"55.8894271850586","longitude":"-3.05232691764832","service_numbers":["3","33","N3"]},{"name":"James Lean Avenu","code":"64323497","latitude":"55.8916015625","longitude":"-3.06069993972778","service_numbers":["3","33","N3"]},{"name":"James Lean Avenu","code":"64323498","latitude":"55.8916244506836","longitude":"-3.06014204025269","service_numbers":["3","33","N3"]},{"name":"Jarnac Court","code":"64323524","latitude":"55.8941192626953","longitude":"-3.0708429813385","service_numbers":["3","39","40","49","N3"]},{"name":"King's Park","code":"64323525","latitude":"55.8916358947754","longitude":"-3.0741970539093","service_numbers":["3","39","40","49","N3"]},{"name":"Kippielaw Road","code":"64323526","latitude":"55.8857612609863","longitude":"-3.05014896392822","service_numbers":["3","33","N3"]},{"name":"Kippielaw Road","code":"64323527","latitude":"55.8853988647461","longitude":"-3.05029892921448","service_numbers":["3","33","N3"]},{"name":"Primrose Terrace","code":"64323542","latitude":"55.8900413513184","longitude":"-3.05394196510315","service_numbers":["3","33","N3"]},{"name":"Primrose Terrace","code":"64323543","latitude":"55.8900337219238","longitude":"-3.05474209785461","service_numbers":["3","33","N3"]},{"name":"South Street","code":"64323562","latitude":"55.8935012817383","longitude":"-3.0695469379425","service_numbers":["3","33","40","49","N3"]},{"name":"Easthouses Way","code":"64323626","latitude":"55.8825569152832","longitude":"-3.04958295822144","service_numbers":["3","33","N3"]},{"name":"Easthouses Way","code":"64323627","latitude":"55.8818168640137","longitude":"-3.0489399433136","service_numbers":["3","33","N3"]},{"name":"Little Acre","code":"64323628","latitude":"55.880744934082","longitude":"-3.04809498786926","service_numbers":["3","33","N3"]},{"name":"Little Acre","code":"64323629","latitude":"55.8809204101562","longitude":"-3.04857993125916","service_numbers":["3","33","N3"]},{"name":"Arniston Engine","code":"64323679","latitude":"55.8477630615234","longitude":"-3.05402803421021","service_numbers":["3","29","X29","33","N3"]},{"name":"Gore Avenue to E","code":"64323682","latitude":"55.8461685180664","longitude":"-3.04604697227478","service_numbers":["3","29","X29","33","39"]},{"name":"Gorebride Inn","code":"64323684","latitude":"55.8421401977539","longitude":"-3.04750394821167","service_numbers":["3","29","X29","33","39","N3"]},{"name":"Greenhall Road","code":"64323687","latitude":"55.8516044616699","longitude":"-3.05457901954651","service_numbers":["3","29","X29","33","39","N3"]},{"name":"Leisure Centre","code":"64323692","latitude":"55.8447570800781","longitude":"-3.05028891563416","service_numbers":["3","29","X29","33","N3"]},{"name":"New Huntersfield","code":"64323695","latitude":"55.8490524291992","longitude":"-3.05559611320496","service_numbers":["3","29","X29","33","N3"]},{"name":"Newbyres Crescen","code":"64323698","latitude":"55.8444366455078","longitude":"-3.04887509346008","service_numbers":["3","29","X29","33"]},{"name":"Gowkshill Farm C","code":"64323732","latitude":"55.8559684753418","longitude":"-3.05589604377747","service_numbers":["3","29","X29","33","N3"]},{"name":"The Crescent","code":"64323735","latitude":"55.8580284118652","longitude":"-3.05659008026123","service_numbers":["3","29","X29","33","N3"]},{"name":"St Andrews PS","code":"64323736","latitude":"55.8534622192383","longitude":"-3.05376696586609","service_numbers":["3","29","X29","33","N3"]},{"name":"Blackcot","code":"64323848","latitude":"55.8707122802734","longitude":"-3.04776096343994","service_numbers":["3","29","33","N3"]},{"name":"Sycamore Road","code":"64323851","latitude":"55.8707275390625","longitude":"-3.03830099105835","service_numbers":["3"]},{"name":"Blackcot Avenue","code":"64323852","latitude":"55.8687896728516","longitude":"-3.0488920211792","service_numbers":["3","29","33","N3"]},{"name":"Elm Place","code":"64323853","latitude":"55.8729095458984","longitude":"-3.03957390785217","service_numbers":["3","29","33","N3"]},{"name":"Elm Place","code":"64323854","latitude":"55.8736839294434","longitude":"-3.0403618812561","service_numbers":["3","29","33","N3"]},{"name":"Finlay Place","code":"64323856","latitude":"55.8735275268555","longitude":"-3.03031992912292","service_numbers":["3","29"]},{"name":"Finlay Place","code":"64323857","latitude":"55.8735237121582","longitude":"-3.03095889091492","service_numbers":["3","29"]},{"name":"Hawthorn Crescen","code":"64323858","latitude":"55.8786888122559","longitude":"-3.04687309265137","service_numbers":["3","33","N3"]},{"name":"Hawthorn Centre","code":"64323859","latitude":"55.8769149780273","longitude":"-3.04399609565735","service_numbers":["3","29","33","N3"]},{"name":"Hawthorn Centre","code":"64323862","latitude":"55.877124786377","longitude":"-3.0447850227356","service_numbers":["3","29","33","N3"]},{"name":"Hawthorn Crescen","code":"64323863","latitude":"55.8785133361816","longitude":"-3.04642105102539","service_numbers":["3","33","N3"]},{"name":"Westhouses Stree","code":"64323864","latitude":"55.8672790527344","longitude":"-3.03804898262024","service_numbers":["3"]},{"name":"Hill Place","code":"64323865","latitude":"55.8676223754883","longitude":"-3.03799390792847","service_numbers":["3","29"]},{"name":"Hughes Crescent","code":"64323867","latitude":"55.870662689209","longitude":"-3.02928495407104","service_numbers":["3","29"]},{"name":"Hughes Crescent","code":"64323868","latitude":"55.8708381652832","longitude":"-3.02944993972778","service_numbers":["3","29"]},{"name":"Cook Crescent","code":"64323869","latitude":"55.8661575317383","longitude":"-3.04099106788635","service_numbers":["3","18","29"]},{"name":"Larch Crescent","code":"64323872","latitude":"55.8725738525391","longitude":"-3.02832889556885","service_numbers":["3","29"]},{"name":"Mayfield Place","code":"64323873","latitude":"55.8748741149902","longitude":"-3.04122400283813","service_numbers":["3","29","33","N3"]},{"name":"Stone Place","code":"64323875","latitude":"55.871898651123","longitude":"-3.04242300987244","service_numbers":["3","33","N3"]},{"name":"Mayfield Place","code":"64323876","latitude":"55.8751373291016","longitude":"-3.04203104972839","service_numbers":["3","29","33","N3"]},{"name":"Oak Crescent","code":"64323878","latitude":"55.8731994628906","longitude":"-3.03510594367981","service_numbers":["3","29"]},{"name":"Oak Crescent","code":"64323879","latitude":"55.8728561401367","longitude":"-3.03541707992554","service_numbers":["3","29"]},{"name":"Mayfield Rndabt","code":"64323891","latitude":"55.8720092773438","longitude":"-3.03980493545532","service_numbers":["3"]},{"name":"Oak Place","code":"64323892","latitude":"55.8690948486328","longitude":"-3.03403806686401","service_numbers":["3","29"]},{"name":"Mayfield roundab","code":"64323893","latitude":"55.8720092773438","longitude":"-3.03980493545532","service_numbers":["3","29","33","N3"]},{"name":"Suttieslea Place","code":"64323895","latitude":"55.8700103759766","longitude":"-3.0530800819397","service_numbers":["3","29","33","N3"]},{"name":"Westhouses Avenu","code":"64323898","latitude":"55.8680152893066","longitude":"-3.03416895866394","service_numbers":["3","29"]},{"name":"Westhouses Drive","code":"64323923","latitude":"55.8660087585449","longitude":"-3.03747200965881","service_numbers":["3","29"]},{"name":"Westhouses Drive","code":"64323924","latitude":"55.8659362792969","longitude":"-3.03777289390564","service_numbers":["3"]},{"name":"Oak Place","code":"64323925","latitude":"55.869270324707","longitude":"-3.03420305252075","service_numbers":["3","29"]},{"name":"Buckie Road","code":"64323926","latitude":"55.8720207214355","longitude":"-3.03859090805054","service_numbers":["3","29"]},{"name":"Bryans Farm","code":"64323965","latitude":"55.8718681335449","longitude":"-3.05648708343506","service_numbers":["3","29","33","N3"]},{"name":"Bryans Avenue","code":"64323968","latitude":"55.8712997436523","longitude":"-3.05998706817627","service_numbers":["3","29","33","N3"]},{"name":"Dean Park Place","code":"64323973","latitude":"55.8668365478516","longitude":"-3.06705689430237","service_numbers":["3","29","X29","33","39","N3"]},{"name":"Dean Park Place","code":"64323975","latitude":"55.8652496337891","longitude":"-3.06645393371582","service_numbers":["3","29","X29","33","39","N3"]},{"name":"McGahey Court","code":"64323983","latitude":"55.8603057861328","longitude":"-3.06368207931519","service_numbers":["3","29","X29","33","N3"]},{"name":"Mining Museum","code":"64323985","latitude":"55.8616714477539","longitude":"-3.06547689437866","service_numbers":["3","29","X29","33","39","N3"]},{"name":"Park Road","code":"64324232","latitude":"55.8703880310059","longitude":"-3.06347799301147","service_numbers":["3","29","33","N3"]},{"name":"Station Road","code":"64324236","latitude":"55.8691558837891","longitude":"-3.06871795654297","service_numbers":["3","29","X29","33","39","N3"]},{"name":"Westhouses Road","code":"64324639","latitude":"55.8674163818359","longitude":"-3.0357038974762","service_numbers":["3"]},{"name":"Melville Castle","code":"64324672","latitude":"55.8951683044434","longitude":"-3.09327697753906","service_numbers":["3","N3"]},{"name":"Cook Crescent","code":"64325742","latitude":"55.8664588928223","longitude":"-3.03975296020508","service_numbers":["3"]},{"name":"Police Station","code":"64325846","latitude":"55.8430862426758","longitude":"-3.04821610450745","service_numbers":["3","29","X29","33","39","N3"]},{"name":"Barleyknowe Cres","code":"64325847","latitude":"55.8505668640137","longitude":"-3.05488705635071","service_numbers":["3","29","X29","33","39","N3"]},{"name":"Eskbank Court","code":"64329268","latitude":"55.8890190124512","longitude":"-3.08164000511169","service_numbers":["3","N3"]},{"name":"Opp. Eskbank Cou","code":"64329269","latitude":"55.889476776123","longitude":"-3.08179593086243","service_numbers":["3","N3"]},{"name":"Elginhaugh Bridg","code":"64329326","latitude":"55.8930549621582","longitude":"-3.08736491203308","service_numbers":["3","N3"]}];