var Stops = Stops || {};Stops['N25'] = [{"name":"Castle Street","code":"36232545","latitude":"55.9510841369629","longitude":"-3.20176601409912","service_numbers":["1","3","4","22","25","X25","30","33","34","44","44A","X44","N22","N25","N30","N34","N44"]},{"name":"South Charlotte","code":"36232546","latitude":"55.9506454467773","longitude":"-3.2043309211731","service_numbers":["3","4","25","X25","33","44","44A","X44","N25","N44"]},{"name":"Longstone Road","code":"36232589","latitude":"55.9269027709961","longitude":"-3.26889491081238","service_numbers":["3","25","30","33","35","N25","N30"]},{"name":"Saughton Prison","code":"36232592","latitude":"55.929630279541","longitude":"-3.2607090473175","service_numbers":["3","25","30","33","35","N25","N30"]},{"name":"Stenhouse","code":"36232593","latitude":"55.9299125671387","longitude":"-3.25748491287231","service_numbers":["3","25","30","33","35","N25","N30"]},{"name":"Stenhouse Mill","code":"36232594","latitude":"55.9297523498535","longitude":"-3.25751209259033","service_numbers":["3","25","30","33","35","N25","N30"]},{"name":"Saughton Prison","code":"36232595","latitude":"55.929744720459","longitude":"-3.2610330581665","service_numbers":["3","25","30","33","35","N25","N30"]},{"name":"Chesser House","code":"36232596","latitude":"55.9319343566895","longitude":"-3.25049090385437","service_numbers":["3","25","30","33","N25","N30"]},{"name":"Chesser Cottages","code":"36232597","latitude":"55.9328575134277","longitude":"-3.24741506576538","service_numbers":["3","25","30","33","N25","N30"]},{"name":"Balgreen Road","code":"36232624","latitude":"55.9343070983887","longitude":"-3.24446797370911","service_numbers":["3","25","33","38","N25"]},{"name":"Westfield Road","code":"36232625","latitude":"55.9365119934082","longitude":"-3.2403290271759","service_numbers":["3","25","33","38","N25"]},{"name":"Smithfield Stree","code":"36232626","latitude":"55.937255859375","longitude":"-3.23532605171204","service_numbers":["1","2","3","25","33","N25"]},{"name":"Tynecastle","code":"36232627","latitude":"55.9383697509766","longitude":"-3.23081398010254","service_numbers":["1","2","3","25","33","N25"]},{"name":"Gorgie City Farm","code":"36232628","latitude":"55.9389419555664","longitude":"-3.22841501235962","service_numbers":["1","2","3","25","33","N25"]},{"name":"Murieston","code":"36232629","latitude":"55.9398422241211","longitude":"-3.22562599182129","service_numbers":["2","3","4","25","33","44","N25","N44"]},{"name":"Springwell Place","code":"36232632","latitude":"55.9415550231934","longitude":"-3.22318196296692","service_numbers":["2","3","4","25","33","44","N25","N44"]},{"name":"Orwell Place","code":"36232634","latitude":"55.943546295166","longitude":"-3.21991395950317","service_numbers":["2","3","4","25","33","44","N25","N44"]},{"name":"Dalry Place","code":"36232635","latitude":"55.9455642700195","longitude":"-3.21735191345215","service_numbers":["2","3","4","25","33","44","N25","N44"]},{"name":"Haymarket Statio","code":"36232658","latitude":"55.9455947875977","longitude":"-3.21717691421509","service_numbers":["2","3","25","33","N25"]},{"name":"Caledonian Villa","code":"36232672","latitude":"55.9425888061523","longitude":"-3.22140502929688","service_numbers":["2","3","4","25","33","44","44A","N25","N44"]},{"name":"Dalry Primary Sc","code":"36232673","latitude":"55.9414024353027","longitude":"-3.22312903404236","service_numbers":["2","3","4","25","33","44","44A","N25","N44"]},{"name":"Murieston Cresce","code":"36232674","latitude":"55.9398536682129","longitude":"-3.22532200813293","service_numbers":["2","3","4","25","33","44","44A","N25","N44"]},{"name":"Gorgie City Farm","code":"36232675","latitude":"55.9388313293457","longitude":"-3.22852396965027","service_numbers":["1","2","3","25","33","N25"]},{"name":"Tynecastle","code":"36232676","latitude":"55.9378776550293","longitude":"-3.23220801353455","service_numbers":["1","2","3","25","33","N25"]},{"name":"Gorgie","code":"36232678","latitude":"55.9373054504395","longitude":"-3.23467111587524","service_numbers":["1","2","3","25","33","N25"]},{"name":"Gorgie Primary S","code":"36232679","latitude":"55.9364128112793","longitude":"-3.24026203155518","service_numbers":["3","25","33","38","N25"]},{"name":"Balgreen Road","code":"36232682","latitude":"55.9340438842773","longitude":"-3.24455595016479","service_numbers":["3","25","33","38","N25"]},{"name":"Chesser House","code":"36232683","latitude":"55.9323120117188","longitude":"-3.24880599975586","service_numbers":["3","25","30","33","N25","N30"]},{"name":"Chesser Cottages","code":"36232684","latitude":"55.932991027832","longitude":"-3.24639511108398","service_numbers":["3","25","30","33","N25","N30"]},{"name":"Chesser Avenue","code":"36232685","latitude":"55.9307403564453","longitude":"-3.25386190414429","service_numbers":["3","25","30","33","35","N25","N30"]},{"name":"Saughton Mains","code":"36232686","latitude":"55.9283218383789","longitude":"-3.26538801193237","service_numbers":["3","25","30","33","35","N25","N30"]},{"name":"Parkhead Terrace","code":"36234858","latitude":"55.9259948730469","longitude":"-3.2716178894043","service_numbers":["3","25","34","35","109","N25","N34"]},{"name":"St Josephs Prima","code":"36234859","latitude":"55.9247741699219","longitude":"-3.27663493156433","service_numbers":["3","25","34","35","109","N25","N34"]},{"name":"Sighthill","code":"36234862","latitude":"55.9235076904297","longitude":"-3.28281903266907","service_numbers":["3","21","25","32","34","35","109","N25","N34"]},{"name":"Sighthill Shops","code":"36234863","latitude":"55.9228439331055","longitude":"-3.28761410713196","service_numbers":["3","21","25","X25","32","34","35","109","N25","N34"]},{"name":"Bankhead Roundab","code":"36234864","latitude":"55.9219093322754","longitude":"-3.29289603233337","service_numbers":["25","X25","32","34","109","N25","N34"]},{"name":"Calder View","code":"36234867","latitude":"55.9208450317383","longitude":"-3.29828596115112","service_numbers":["25","X25","34","109","N25","N34"]},{"name":"The Avenue","code":"36234873","latitude":"55.9102554321289","longitude":"-3.31740188598633","service_numbers":["20","25","X25","34","45","N25","N34"]},{"name":"The Avenue","code":"36234875","latitude":"55.9105911254883","longitude":"-3.31699705123901","service_numbers":["25","X25","34","45","N25","N34"]},{"name":"Burtons Biscuits","code":"36234893","latitude":"55.9215393066406","longitude":"-3.2963240146637","service_numbers":["25","X25","34","109","N25","N34"]},{"name":"Esnee Fairbairn","code":"36235951","latitude":"55.9077301025391","longitude":"-3.32067608833313","service_numbers":["N25","N34"]},{"name":"Lord Thomson Hal","code":"36235952","latitude":"55.9074325561523","longitude":"-3.32754397392273","service_numbers":["25","N25","N34"]},{"name":"Napier Universit","code":"36236876","latitude":"55.9227561950684","longitude":"-3.29009199142456","service_numbers":["3","21","25","X25","32","34","35","109","N25","N34"]},{"name":"Sighthill","code":"36236878","latitude":"55.9233894348145","longitude":"-3.28540802001953","service_numbers":["3","21","25","X25","32","34","35","109","N25","N34"]},{"name":"Broomhouse","code":"36236879","latitude":"55.9243965148926","longitude":"-3.27947211265564","service_numbers":["3","25","34","35","109","N25","N34"]},{"name":"St Josephs Schoo","code":"36236892","latitude":"55.9251556396484","longitude":"-3.27618408203125","service_numbers":["3","25","34","35","109","N25","N34"]},{"name":"Royal Scottish A","code":"36237983","latitude":"55.9520874023438","longitude":"-3.19571208953857","service_numbers":["1","3","4","22","25","30","33","34","44","44A","N16","N22","N25","N26","N30","N34","N37","N44"]},{"name":"Saughton Mains A","code":"36239469","latitude":"55.9285545349121","longitude":"-3.26565194129944","service_numbers":["3","25","30","33","35","N25","N30"]},{"name":"Chesser Avenue","code":"36242373","latitude":"55.9318771362305","longitude":"-3.25020098686218","service_numbers":["3","25","30","33","N25","N30"]},{"name":"Omni Centre","code":"36242691","latitude":"55.9554443359375","longitude":"-3.18665409088135","service_numbers":["1","4","10","11","12","15","16","19","22","25","26","34","44","44A","N3","N11","N16","N22","N25","N26","N30","N31","N34","N37","N44"]},{"name":"Hermiston P&R (t","code":"36246365","latitude":"55.9172515869141","longitude":"-3.31443905830383","service_numbers":["25","X25","34","45","N25","N34"]},{"name":"Hermiston P&R (t","code":"36246389","latitude":"55.9170188903809","longitude":"-3.31435108184814","service_numbers":["25","X25","34","45","N25","N34"]},{"name":"The Exchange","code":"36253298","latitude":"55.9476852416992","longitude":"-3.20837092399597","service_numbers":["3","4","12","25","26","31","33","44","44A","N25","N26","N44"]},{"name":"Morrison Link","code":"36253423","latitude":"55.9456024169922","longitude":"-3.21445488929749","service_numbers":["3","4","25","33","44","44A","N25","N44"]},{"name":"Morrison Link","code":"36253573","latitude":"55.9457321166992","longitude":"-3.21418690681458","service_numbers":["3","4","25","33","44","N3","N25","N44"]}];