var Stops = Stops || {};Stops['X37'] = [{"name":"Clarendon Cresce","code":"36232364","latitude":"55.9545440673828","longitude":"-3.21535897254944","service_numbers":["19","36","37","47","X37","41","113","N37"]},{"name":"Buckingham Terra","code":"36232365","latitude":"55.9543724060059","longitude":"-3.21546602249146","service_numbers":["19","36","37","47","X37","41","113","WHT","N37"]},{"name":"Drumsheugh Place","code":"36232367","latitude":"55.9516868591309","longitude":"-3.21163392066956","service_numbers":["19","36","37","47","X37","41","113","N37"]},{"name":"Drumsheugh Place","code":"36232368","latitude":"55.951602935791","longitude":"-3.21196794509888","service_numbers":["19","36","37","47","X37","41","113","WHT","N37"]},{"name":"George Street we","code":"36232374","latitude":"55.9524192810059","longitude":"-3.20475506782532","service_numbers":["19","36","37","X37","41","113","N37"]},{"name":"George Street we","code":"36232375","latitude":"55.9520606994629","longitude":"-3.20560789108276","service_numbers":["19","36","37","X37","41","113","ET1","WHT","N37"]},{"name":"The Dome","code":"36232389","latitude":"55.9538269042969","longitude":"-3.19514107704163","service_numbers":["1","23","26","X26","36","X37","41","42","X44","67","ET1","MA1","WHT","N26"]},{"name":"Scott Monument","code":"36232534","latitude":"55.9524726867676","longitude":"-3.19487500190735","service_numbers":["1","19","31","X31","34","37","X37"]},{"name":"Buckingham Terra","code":"36232695","latitude":"55.955150604248","longitude":"-3.21957492828369","service_numbers":["19","37","47","X37","41","113","WHT","N37"]},{"name":"Learmonth Terrac","code":"36232696","latitude":"55.9552879333496","longitude":"-3.21925902366638","service_numbers":["19","37","47","X37","41","113","N37"]},{"name":"Silverknowes Pla","code":"36232792","latitude":"55.9723739624023","longitude":"-3.27116799354553","service_numbers":["16","27","37","47","X37","N37"]},{"name":"Crewe Toll","code":"36232832","latitude":"55.9694976806641","longitude":"-3.23676896095276","service_numbers":["19","X29","47","X37","38"]},{"name":"Crewe Road West","code":"36232834","latitude":"55.9731597900391","longitude":"-3.2383439540863","service_numbers":["19","X29","47","X37","38"]},{"name":"Boswall Parkway","code":"36232835","latitude":"55.9751853942871","longitude":"-3.23882603645325","service_numbers":["14","X29","47","X37","38"]},{"name":"Royston Mains Cr","code":"36232836","latitude":"55.9767608642578","longitude":"-3.23935699462891","service_numbers":["14","X29","47","X37","38"]},{"name":"Royston Mains Cr","code":"36232846","latitude":"55.976692199707","longitude":"-3.2391459941864","service_numbers":["14","X29","47","X37","38"]},{"name":"Boswall Parkway","code":"36232847","latitude":"55.974666595459","longitude":"-3.2384889125824","service_numbers":["19","X29","47","X37","38"]},{"name":"Crewe Road West","code":"36232848","latitude":"55.9728736877441","longitude":"-3.23803091049194","service_numbers":["19","X29","47","X37","38"]},{"name":"Crewe Toll (Crew","code":"36232849","latitude":"55.9677429199219","longitude":"-3.23548007011414","service_numbers":["19","24","29","X29","37","47","X37","38","N37"]},{"name":"Grigor Avenue","code":"36232852","latitude":"55.9664726257324","longitude":"-3.23473501205444","service_numbers":["19","24","29","X29","37","47","X37","38","N37"]},{"name":"Orchard Brae Ave","code":"36232864","latitude":"55.9564247131348","longitude":"-3.22344303131104","service_numbers":["19","37","47","X37","113","N37"]},{"name":"Orchard Brae Wes","code":"36232865","latitude":"55.9578247070312","longitude":"-3.22540903091431","service_numbers":["19","37","47","X37","113","N37"]},{"name":"Orchard Brae wes","code":"36232867","latitude":"55.9582710266113","longitude":"-3.22574400901794","service_numbers":["19","37","47","X37","113","N37"]},{"name":"Comely Bank Ceme","code":"36232868","latitude":"55.9600563049316","longitude":"-3.22842693328857","service_numbers":["19","24","29","X29","37","47","X37","38","113","N37"]},{"name":"Comely Bank Ceme","code":"36232869","latitude":"55.9601936340332","longitude":"-3.22839903831482","service_numbers":["19","24","29","X29","37","47","X37","38","113","N37"]},{"name":"Western General","code":"36232872","latitude":"55.961540222168","longitude":"-3.23017191886902","service_numbers":["19","24","29","X29","37","47","X37","38","113","N37"]},{"name":"Western General","code":"36232873","latitude":"55.9619178771973","longitude":"-3.23098492622375","service_numbers":["19","24","29","X29","37","47","X37","38","113","N37"]},{"name":"North Werber Par","code":"36232874","latitude":"55.9650115966797","longitude":"-3.23362994194031","service_numbers":["19","24","29","X29","37","47","X37","38","N37"]},{"name":"North Werber Pla","code":"36232875","latitude":"55.9656295776367","longitude":"-3.23384189605713","service_numbers":["19","24","29","X29","37","47","X37","38","N37"]},{"name":"Davidson Road","code":"36232876","latitude":"55.9634056091309","longitude":"-3.23247408866882","service_numbers":["19","24","29","X29","37","47","X37","N37"]},{"name":"West Woods","code":"36232878","latitude":"55.963996887207","longitude":"-3.23258900642395","service_numbers":["19","24","29","X29","37","47","X37","38","N37"]},{"name":"North Bridge","code":"36234754","latitude":"55.9514045715332","longitude":"-3.1879711151123","service_numbers":["7","31","X31","37","47","X37","N31","N37"]},{"name":"Infirmary Street","code":"36234757","latitude":"55.9485893249512","longitude":"-3.18660402297974","service_numbers":["7","31","X31","37","47","X37","N31","N37"]},{"name":"Nicolson Street","code":"36234759","latitude":"55.9455795288086","longitude":"-3.1844789981842","service_numbers":["7","31","X31","37","47","X37","N31","N37"]},{"name":"East Preston Str","code":"36234784","latitude":"55.9387664794922","longitude":"-3.1790189743042","service_numbers":["3","5","7","8","29","X29","31","X31","37","47","X37","49","N3","N31","N37"]},{"name":"Salisbury Place","code":"36234786","latitude":"55.9377403259277","longitude":"-3.17834806442261","service_numbers":["3","5","7","8","29","X29","31","X31","37","47","X37","49","N3","N31","N37"]},{"name":"Rankeillor Stree","code":"36234797","latitude":"55.9426956176758","longitude":"-3.18258094787598","service_numbers":["7","31","X31","37","47","X37","N31","N37"]},{"name":"Bernard Terrace","code":"36234823","latitude":"55.940559387207","longitude":"-3.18051505088806","service_numbers":["7","31","X31","37","47","X37","N31","N37"]},{"name":"Salisbury Road","code":"36234837","latitude":"55.9371299743652","longitude":"-3.17752909660339","service_numbers":["3","7","8","29","X29","31","X31","37","47","X37","49","N3","N31","N37"]},{"name":"Montague Street","code":"36234856","latitude":"55.9416694641113","longitude":"-3.18174910545349","service_numbers":["2","3","5","7","8","29","X29","30","31","X31","33","37","47","X37","49","N3","N30","N31","N37"]},{"name":"St Patrick Squar","code":"36234857","latitude":"55.9433174133301","longitude":"-3.18332099914551","service_numbers":["2","3","5","7","8","29","X29","30","31","X31","33","37","47","X37","49","N3","N30","N31","N37"]},{"name":"South Bridge","code":"36235878","latitude":"55.949390411377","longitude":"-3.18726897239685","service_numbers":["3","8","29","X29","30","31","X31","33","37","47","X37","N3","N30","N31","N37"]},{"name":"North Bridge","code":"36235892","latitude":"55.9521789550781","longitude":"-3.18868398666382","service_numbers":["3","29","X29","30","31","X31","33","37","47","X37","N3","N30","N31","N37"]},{"name":"Lutton Place","code":"36236562","latitude":"55.9404678344727","longitude":"-3.18073606491089","service_numbers":["2","3","5","7","8","29","X29","30","31","X31","33","37","47","X37","49","N3","N30","N31","N37"]},{"name":"Surgeons Hall","code":"36236563","latitude":"55.9457740783691","longitude":"-3.18491697311401","service_numbers":["3","5","7","8","14","29","X29","30","31","X31","33","37","47","X37","49","N3","N30","N31","N37"]},{"name":"Rose Street","code":"36237254","latitude":"55.9524993896484","longitude":"-3.20025706291199","service_numbers":["19","24","29","X29","37","X37","42","113","N37"]},{"name":"Rose Street","code":"36237256","latitude":"55.9524955749512","longitude":"-3.19993591308594","service_numbers":["19","24","29","X29","36","37","X37","41","42","113","N37"]},{"name":"Lady Road","code":"36237843","latitude":"55.9258193969727","longitude":"-3.16686296463013","service_numbers":["3","7","8","29","X29","31","37","47","X37","N3","N31","N37"]},{"name":"Lady Road","code":"36237845","latitude":"55.9258728027344","longitude":"-3.16665601730347","service_numbers":["3","7","8","29","X29","31","37","47","X37","N3","N31","N37"]},{"name":"Balmwell Terrace","code":"36237869","latitude":"55.901065826416","longitude":"-3.16375303268433","service_numbers":["7","37","47","X37","67","N37"]},{"name":"Balmwell Terrace","code":"36237879","latitude":"55.9011268615723","longitude":"-3.1640739440918","service_numbers":["7","37","47","X37","67","N37"]},{"name":"Granton Square","code":"36238465","latitude":"55.9807891845703","longitude":"-3.22483706474304","service_numbers":["16","47","X37","38"]},{"name":"Marine Garage ro","code":"36245936","latitude":"55.9590034484863","longitude":"-3.12328290939331","service_numbers":["4","15","19","21","X37","40","42","X44","67","C134"]},{"name":"Queensferry Stre","code":"36245986","latitude":"55.9506912231445","longitude":"-3.20955300331116","service_numbers":["19","36","37","47","X37","113","N37"]},{"name":"Queensferry Stre","code":"36246236","latitude":"55.950511932373","longitude":"-3.20869898796082","service_numbers":["19","36","37","47","X37","41","113","N26","N37"]},{"name":"Waterfront Light","code":"36246528","latitude":"55.9819755554199","longitude":"-3.22993898391724","service_numbers":["24","47","X37","38"]},{"name":"Waterfront Light","code":"36246542","latitude":"55.9819145202637","longitude":"-3.22984099388123","service_numbers":["24","47","X37","38"]},{"name":"Scottish Gas HQ","code":"36246732","latitude":"55.9791831970215","longitude":"-3.24151802062988","service_numbers":["24","47","X37","38"]},{"name":"Scottish Gas HQ","code":"36246753","latitude":"55.978946685791","longitude":"-3.24175095558167","service_numbers":["24","47","X37","38"]},{"name":"Bae Systems","code":"36247256","latitude":"55.9695625305176","longitude":"-3.23656296730042","service_numbers":["19","X29","47","X37","38"]},{"name":"Saltire Square","code":"36247563","latitude":"55.9808883666992","longitude":"-3.23641204833984","service_numbers":["24","47","X37","38"]},{"name":"Saltire Square","code":"36248746","latitude":"55.9806785583496","longitude":"-3.23658108711243","service_numbers":["24","47","X37","38"]},{"name":"Lochinvar Drive","code":"36253265","latitude":"55.9820938110352","longitude":"-3.22362804412842","service_numbers":["47","X37"]},{"name":"Hesperus Crosswa","code":"36253267","latitude":"55.9836387634277","longitude":"-3.22558403015137","service_numbers":["27","37","47","X37","42"]},{"name":"Crewe Road Garde","code":"36253568","latitude":"55.9709663391113","longitude":"-3.23753690719604","service_numbers":["19","X29","47","X37","38"]},{"name":"Crewe Road Garde","code":"36253569","latitude":"55.9711837768555","longitude":"-3.23741602897644","service_numbers":["19","X29","47","X37","38"]},{"name":"Chestnut Street","code":"36253582","latitude":"55.9837226867676","longitude":"-3.22884106636047","service_numbers":["47","X37"]},{"name":"Moorfoot View","code":"64323238","latitude":"55.8689842224121","longitude":"-3.17901396751404","service_numbers":["15","15A","37","47","X37","67","N37"]},{"name":"Moorfoot View","code":"64323239","latitude":"55.8673858642578","longitude":"-3.18005204200745","service_numbers":["15","15A","37","47","X37","67","N37"]},{"name":"Ploverhall cotta","code":"64323242","latitude":"55.8639602661133","longitude":"-3.18296790122986","service_numbers":["15","15A","37","47","X37","67","N37"]},{"name":"Ploverhall Cotta","code":"64323243","latitude":"55.8629570007324","longitude":"-3.18346500396729","service_numbers":["15","15A","37","47","X37","67","N37"]},{"name":"Roslin Road","code":"64323245","latitude":"55.8700714111328","longitude":"-3.17827892303467","service_numbers":["37","47","X37","40","67","N37"]},{"name":"Roslin Road","code":"64323246","latitude":"55.869873046875","longitude":"-3.17812991142273","service_numbers":["37","47","X37","40","67","N37"]},{"name":"Seafield Road","code":"64323247","latitude":"55.8717918395996","longitude":"-3.17692494392395","service_numbers":["37","47","X37","40","67","N37"]},{"name":"Gracemount cotta","code":"64323248","latitude":"55.8713302612305","longitude":"-3.17699098587036","service_numbers":["37","47","X37","40","67","N37"]},{"name":"Queensway","code":"64323558","latitude":"55.8364791870117","longitude":"-3.21999311447144","service_numbers":["15","15A","37","47","X37","40","67","N37"]},{"name":"Gowkley Moss","code":"64323727","latitude":"55.8586502075195","longitude":"-3.1865611076355","service_numbers":["15","37","47","X37","N37"]},{"name":"Gowkley Moss","code":"64323728","latitude":"55.8588523864746","longitude":"-3.18634390830994","service_numbers":["15","37","47","X37","N37"]},{"name":"New Pentland","code":"64323798","latitude":"55.8797798156738","longitude":"-3.17019701004028","service_numbers":["47","X37","67"]},{"name":"New Pentland","code":"64323823","latitude":"55.8785858154297","longitude":"-3.17127990722656","service_numbers":["47","X37","67"]},{"name":"Niven's Knowe Pa","code":"64323824","latitude":"55.8762283325195","longitude":"-3.17322301864624","service_numbers":["47","X37","40","67"]},{"name":"Niven's Knowe ca","code":"64323825","latitude":"55.8752708435059","longitude":"-3.17386603355408","service_numbers":["47","X37","40","67"]},{"name":"Golf Club","code":"64323938","latitude":"55.8498039245605","longitude":"-3.19900608062744","service_numbers":["37","47","X37","40","67","N37"]},{"name":"Golf Club","code":"64323939","latitude":"55.8496131896973","longitude":"-3.20011901855469","service_numbers":["37","47","X37","40","67","N37"]},{"name":"Milton Cottages","code":"64323942","latitude":"55.8528442382812","longitude":"-3.19053792953491","service_numbers":["37","47","X37","40","67","N37"]},{"name":"Milton Cottages","code":"64323943","latitude":"55.8517532348633","longitude":"-3.19283699989319","service_numbers":["37","47","X37","40","67","N37"]},{"name":"Angle Park","code":"64324265","latitude":"55.8312721252441","longitude":"-3.22386908531189","service_numbers":["15","15A","37","47","X37","40","67"]},{"name":"Angle Park","code":"64324267","latitude":"55.8313179016113","longitude":"-3.22414207458496","service_numbers":["15","15A","37","47","X37","40","67","N37"]},{"name":"Beeslack High Sc","code":"64324269","latitude":"55.8412246704102","longitude":"-3.21247601509094","service_numbers":["15","15A","37","47","X37","40","67","N37"]},{"name":"Beeslack High Sc","code":"64324272","latitude":"55.8404998779297","longitude":"-3.21325206756592","service_numbers":["15","15A","37","47","X37","40","67","N37"]},{"name":"Clerk Road","code":"64324275","latitude":"55.8287544250488","longitude":"-3.23763203620911","service_numbers":["37","X37","N37"]},{"name":"Clerk Road","code":"64324276","latitude":"55.8289337158203","longitude":"-3.23763704299927","service_numbers":["37","X37","N37"]},{"name":"Craigiebield Cre","code":"64324278","latitude":"55.8271636962891","longitude":"-3.22624707221985","service_numbers":["37","X37","N37"]},{"name":"Craigiebield Cre","code":"64324279","latitude":"55.8279647827148","longitude":"-3.22675108909607","service_numbers":["37","X37","N37"]},{"name":"Deanburn Terminu","code":"64324281","latitude":"55.8376770019531","longitude":"-3.22625803947449","service_numbers":["37","47","X37"]},{"name":"Cuiken Ave.","code":"64324283","latitude":"55.8334159851074","longitude":"-3.22253203392029","service_numbers":["15","15A","37","47","X37","40","67"]},{"name":"Cuiken Avenue","code":"64324284","latitude":"55.8339385986328","longitude":"-3.22230911254883","service_numbers":["15","15A","37","47","X37","40","67","N37"]},{"name":"Rullion Road","code":"64324285","latitude":"55.8336029052734","longitude":"-3.23826503753662","service_numbers":["37","X37","N37"]},{"name":"Rullion Road","code":"64324286","latitude":"55.8337783813477","longitude":"-3.23843002319336","service_numbers":["37","X37","N37"]},{"name":"Deanburn Terminu","code":"64324287","latitude":"55.8381233215332","longitude":"-3.22643208503723","service_numbers":["37","47","X37","N37"]},{"name":"Gardeners Walk","code":"64324296","latitude":"55.8329467773438","longitude":"-3.24063897132874","service_numbers":["37","X37","N37"]},{"name":"Gardeners Walk","code":"64324297","latitude":"55.8331260681152","longitude":"-3.2406439781189","service_numbers":["37","X37","N37"]},{"name":"Glencorse Barrac","code":"64324298","latitude":"55.8460731506348","longitude":"-3.20384311676025","service_numbers":["15","15A","37","47","X37","40","67","N37"]},{"name":"Glencorse Barrac","code":"64324323","latitude":"55.8460426330566","longitude":"-3.20419311523438","service_numbers":["15","15A","37","47","X37","40","67","N37"]},{"name":"High Street","code":"64324324","latitude":"55.8264045715332","longitude":"-3.22111392021179","service_numbers":["37","X37","N37"]},{"name":"High Street","code":"64324325","latitude":"55.8266754150391","longitude":"-3.22080302238464","service_numbers":["37","X37","N37"]},{"name":"John Street Lane","code":"64324328","latitude":"55.8302383422852","longitude":"-3.22410798072815","service_numbers":["15","15A","37","47","X37","40","67","N37"]},{"name":"Laverlock Drive","code":"64324343","latitude":"55.8363265991211","longitude":"-3.23515701293945","service_numbers":["37","X37","N37"]},{"name":"Laverlock Drive","code":"64324345","latitude":"55.8361434936523","longitude":"-3.23579001426697","service_numbers":["37","X37","N37"]},{"name":"Mauricewood Road","code":"64324346","latitude":"55.8386650085449","longitude":"-3.21718692779541","service_numbers":["15","15A","37","47","X37","40","67","N37"]},{"name":"Mauricewood Road","code":"64324347","latitude":"55.8393020629883","longitude":"-3.21640801429749","service_numbers":["15","15A","37","47","X37","40","67","N37"]},{"name":"Monksrigg Road","code":"64324348","latitude":"55.8314476013184","longitude":"-3.24421501159668","service_numbers":["37","X37","N37"]},{"name":"Navaar House Hot","code":"64324349","latitude":"55.8260955810547","longitude":"-3.22493600845337","service_numbers":["37","X37","N37"]},{"name":"NavaarHouse Hote","code":"64324352","latitude":"55.8262786865234","longitude":"-3.22478199005127","service_numbers":["37","X37","N37"]},{"name":"Queensway","code":"64324357","latitude":"55.8355751037598","longitude":"-3.22060298919678","service_numbers":["15","15A","37","47","X37","40","67"]},{"name":"Ravelsykes Road","code":"64324359","latitude":"55.8301086425781","longitude":"-3.24581694602966","service_numbers":["37","X37","N37"]},{"name":"Ravelsykes Road","code":"64324362","latitude":"55.8301963806152","longitude":"-3.24613904953003","service_numbers":["37","X37","N37"]},{"name":"Ravendean","code":"64324363","latitude":"55.8293533325195","longitude":"-3.24052405357361","service_numbers":["37","X37","N37"]},{"name":"Ravendean","code":"64324364","latitude":"55.8291778564453","longitude":"-3.24035906791687","service_numbers":["37","X37","N37"]},{"name":"Royal Court","code":"64324365","latitude":"55.8379058837891","longitude":"-3.23025703430176","service_numbers":["37","X37","N37"]},{"name":"Royal Court","code":"64324367","latitude":"55.8379859924316","longitude":"-3.23105788230896","service_numbers":["37","X37","N37"]},{"name":"Carlops Road","code":"64324368","latitude":"55.8287200927734","longitude":"-3.23204302787781","service_numbers":["37","X37","N37"]},{"name":"Samoa Terrace","code":"64324369","latitude":"55.8434371948242","longitude":"-3.20679593086243","service_numbers":["15","15A","37","47","X37","40","67","N37"]},{"name":"Samoa Terrace","code":"64324372","latitude":"55.8428764343262","longitude":"-3.20917391777039","service_numbers":["15","15A","37","47","X37","40","67","N37"]},{"name":"Town Centre Term","code":"64324373","latitude":"55.8279609680176","longitude":"-3.2216420173645","service_numbers":["15","15A","37","47","X37","40","67"]},{"name":"Town Centre","code":"64324374","latitude":"55.8278388977051","longitude":"-3.22152590751648","service_numbers":["15","15A","37","47","X37","40","67","N37"]},{"name":"Wilson Street","code":"64324376","latitude":"55.8292579650879","longitude":"-3.22311902046204","service_numbers":["15","15A","37","47","X37","40","67"]},{"name":"Wilson Street","code":"64324378","latitude":"55.8287200927734","longitude":"-3.22310304641724","service_numbers":["15","15A","37","47","X37","40","67","N37"]},{"name":"Straiton","code":"64324563","latitude":"55.8874664306641","longitude":"-3.16414499282837","service_numbers":["37","47","X37","67"]},{"name":"Straiton","code":"64324564","latitude":"55.8875045776367","longitude":"-3.16374611854553","service_numbers":["37","47","X37","67"]},{"name":"Straiton Cottage","code":"64324565","latitude":"55.8842468261719","longitude":"-3.166335105896","service_numbers":["47","X37","67"]},{"name":"Straiton Cottage","code":"64324567","latitude":"55.8848037719727","longitude":"-3.16635203361511","service_numbers":["47","X37","67"]},{"name":"Carlops Road","code":"64324643","latitude":"55.8289947509766","longitude":"-3.23176407814026","service_numbers":["37","X37","N37"]},{"name":"Glencross Garden","code":"64324692","latitude":"55.8282279968262","longitude":"-3.24342608451843","service_numbers":["37","X37","N37"]},{"name":"Straiton P&R","code":"64328248","latitude":"55.8863716125488","longitude":"-3.16695809364319","service_numbers":["47","X37","67"]},{"name":"Straiton P&R","code":"64328249","latitude":"55.8861465454102","longitude":"-3.16679096221924","service_numbers":["47","X37","67"]},{"name":"Castlelaw Cresce","code":"64329289","latitude":"55.8661422729492","longitude":"-3.18135595321655","service_numbers":["15","15A","37","47","X37","67","N37"]},{"name":"Asda Straiton","code":"64329348","latitude":"55.8784675598145","longitude":"-3.17116498947144","service_numbers":["47","X37","40","67"]}];