var Stops = Stops || {};Stops['ET1'] = [{"name":"Charlotte Square","code":"36232373","latitude":"55.9517860412598","longitude":"-3.20888304710388","service_numbers":["X12","36","ET1"]},{"name":"George Street we","code":"36232375","latitude":"55.9520606994629","longitude":"-3.20560789108276","service_numbers":["19","36","37","X37","41","113","ET1","WHT","N37"]},{"name":"The Dome","code":"36232389","latitude":"55.9538269042969","longitude":"-3.19514107704163","service_numbers":["1","23","26","X26","36","X37","41","42","X44","67","ET1","MA1","WHT","N26"]},{"name":"Mound (foot)","code":"36232486","latitude":"55.9514923095703","longitude":"-3.19654202461243","service_numbers":["23","27","67","ET1"]},{"name":"Mound Place","code":"36232487","latitude":"55.9503021240234","longitude":"-3.19509601593018","service_numbers":["23","27","67","ET1"]},{"name":"Waverley Bridge","code":"36232495","latitude":"55.9521675109863","longitude":"-3.19206309318542","service_numbers":["CS1","ET1","MA1","WHT","BOAT"]},{"name":"St Andrew Square","code":"36232496","latitude":"55.9531555175781","longitude":"-3.19380688667297","service_numbers":["ET1","MA1","WHT"]},{"name":"Rose Street","code":"36232539","latitude":"55.9526252746582","longitude":"-3.19657707214355","service_numbers":["23","27","67","ET1"]},{"name":"Lady Lawson Stre","code":"36236424","latitude":"55.946662902832","longitude":"-3.2025420665741","service_numbers":["ET1"]},{"name":"Johnston Terrace","code":"36236426","latitude":"55.9485511779785","longitude":"-3.1951220035553","service_numbers":["ET1"]},{"name":"Riddles Court","code":"36236428","latitude":"55.9492835998535","longitude":"-3.19352698326111","service_numbers":["ET1"]},{"name":"West Port","code":"36236437","latitude":"55.9463958740234","longitude":"-3.20041990280151","service_numbers":["2","ET1","WHT"]},{"name":"Grassmarket","code":"36236438","latitude":"55.9472007751465","longitude":"-3.19711399078369","service_numbers":["2","CS1","ET1","WHT"]},{"name":"Holyrood","code":"36236759","latitude":"55.9521713256836","longitude":"-3.17649602890015","service_numbers":["35","ET1","MA1"]},{"name":"Huntly House Mus","code":"36236762","latitude":"55.9514503479004","longitude":"-3.17969298362732","service_numbers":["35","ET1","MA1"]},{"name":"Moray House","code":"36236763","latitude":"55.9508361816406","longitude":"-3.18271708488464","service_numbers":["35","ET1","MA1"]},{"name":"Queen Street","code":"36242492","latitude":"55.9545936584473","longitude":"-3.19759893417358","service_numbers":["23","27","61","ET1"]},{"name":"Thistle Street","code":"36242497","latitude":"55.9544105529785","longitude":"-3.19791293144226","service_numbers":["23","27","61","ET1","MA1","WHT"]},{"name":"Holyrood Road","code":"36242543","latitude":"55.9501647949219","longitude":"-3.17867708206177","service_numbers":["36","ET1"]},{"name":"Viewcraig Garden","code":"36242583","latitude":"55.9494323730469","longitude":"-3.18189001083374","service_numbers":["36","ET1"]},{"name":"Holyrood Gait","code":"36242592","latitude":"55.950927734375","longitude":"-3.17682600021362","service_numbers":["36","ET1"]},{"name":"Dynamic Earth","code":"36242625","latitude":"55.9508590698242","longitude":"-3.1747419834137","service_numbers":["CS1","ET1"]},{"name":"Holyrood Parliam","code":"36242627","latitude":"55.9522132873535","longitude":"-3.17398309707642","service_numbers":["36","CS1","ET1"]},{"name":"Jeffrey Street","code":"36242674","latitude":"55.9512825012207","longitude":"-3.18660593032837","service_numbers":["36","ET1","MA1"]},{"name":"City Art Centre","code":"36242765","latitude":"55.9510726928711","longitude":"-3.1899631023407","service_numbers":["36","ET1","MA1"]},{"name":"Waverley Bridge","code":"36243494","latitude":"55.9518356323242","longitude":"-3.19197201728821","service_numbers":["CS1","ET1","MA1","WHT"]},{"name":"Queen St Gardens","code":"36245697","latitude":"55.9551544189453","longitude":"-3.20152401924133","service_numbers":["24","29","X29","42","ET1"]}];