var Stops = Stops || {};Stops['40'] = [{"name":"Westbank Place","code":"36234278","latitude":"55.956672668457","longitude":"-3.12078094482422","service_numbers":["15","26","X26","40","45","113","N26"]},{"name":"Bridge Street","code":"36234279","latitude":"55.9550552368164","longitude":"-3.11773896217346","service_numbers":["15","21","26","40","42","45","49","N26"]},{"name":"PortobelloTown H","code":"36234283","latitude":"55.9532127380371","longitude":"-3.11473894119263","service_numbers":["15","26","X26","40","45","N26"]},{"name":"Marlbourough Str","code":"36234284","latitude":"55.9522514343262","longitude":"-3.11184501647949","service_numbers":["15","26","40","45","N26"]},{"name":"Phoenix House","code":"36234285","latitude":"55.9517288208008","longitude":"-3.10990810394287","service_numbers":["15","26","40","45","N26"]},{"name":"Pitville Street","code":"36234286","latitude":"55.9508361816406","longitude":"-3.10611891746521","service_numbers":["15","26","40","45","N26"]},{"name":"Brunstane Road N","code":"36234287","latitude":"55.9500579833984","longitude":"-3.10297393798828","service_numbers":["15","26","40","45","N26"]},{"name":"Ormelie Terrace","code":"36234289","latitude":"55.9493713378906","longitude":"-3.10013604164124","service_numbers":["15","26","40","45","N26"]},{"name":"Coillesdene Driv","code":"36234292","latitude":"55.9489593505859","longitude":"-3.09500002861023","service_numbers":["15","26","40","45","N26"]},{"name":"Seaview Terrace","code":"36234293","latitude":"55.9487609863281","longitude":"-3.09129500389099","service_numbers":["15","26","40","45","N26"]},{"name":"Seaview Terrace","code":"36234294","latitude":"55.9486808776855","longitude":"-3.08704996109009","service_numbers":["26","40","45","N26"]},{"name":"Seaview Terrace","code":"36234295","latitude":"55.9478569030762","longitude":"-3.08276700973511","service_numbers":["26","40","45","N26"]},{"name":"PortobelloTown H","code":"36234574","latitude":"55.9535827636719","longitude":"-3.11572694778442","service_numbers":["15","26","X26","40","45","N26"]},{"name":"Bridge Street","code":"36234576","latitude":"55.9549980163574","longitude":"-3.11813807487488","service_numbers":["15","21","26","40","42","45","49","69","N26"]},{"name":"Kings Road","code":"36234578","latitude":"55.9568367004395","longitude":"-3.12140989303589","service_numbers":["15","21","25","26","X26","40","42","45","49","69","113","N26"]},{"name":"Seaview Terrace","code":"36234627","latitude":"55.9470405578613","longitude":"-3.08127093315125","service_numbers":["26","40","45","N26"]},{"name":"Seaview Terrace","code":"36234628","latitude":"55.9480972290039","longitude":"-3.08407092094421","service_numbers":["26","40","45","N26"]},{"name":"Seaview Terrace","code":"36234629","latitude":"55.9485359191895","longitude":"-3.08813405036926","service_numbers":["15","26","40","45","N26"]},{"name":"Seaview Terrace","code":"36234632","latitude":"55.9485969543457","longitude":"-3.09125900268555","service_numbers":["15","26","40","45","N26"]},{"name":"Coillesdene Driv","code":"36234634","latitude":"55.9487953186035","longitude":"-3.09443497657776","service_numbers":["15","26","40","45","N26"]},{"name":"Morton Street","code":"36234635","latitude":"55.9493064880371","longitude":"-3.10045504570007","service_numbers":["15","26","40","45","N26"]},{"name":"Brunstane Road","code":"36234636","latitude":"55.9500770568848","longitude":"-3.10358309745789","service_numbers":["15","26","40","45","N26"]},{"name":"Pitville Street","code":"36234637","latitude":"55.9508666992188","longitude":"-3.10684108734131","service_numbers":["15","26","40","45","N26"]},{"name":"Phoenix House","code":"36234638","latitude":"55.9516410827637","longitude":"-3.10990500450134","service_numbers":["15","26","40","45","N26"]},{"name":"Windsor Place","code":"36234639","latitude":"55.9521598815918","longitude":"-3.11216306686401","service_numbers":["15","26","40","45","N26"]},{"name":"Marine Garage ro","code":"36245936","latitude":"55.9590034484863","longitude":"-3.12328290939331","service_numbers":["4","15","19","21","X37","40","42","X44","67","C134"]},{"name":"Dolphin Inn","code":"58232479","latitude":"55.9222259521484","longitude":"-3.03588509559631","service_numbers":["40","44","44A"]},{"name":"Dolphin Inn","code":"58232482","latitude":"55.9216194152832","longitude":"-3.03663611412048","service_numbers":["40","44"]},{"name":"Whitecraig Cresc","code":"58232483","latitude":"55.9209747314453","longitude":"-3.03831601142883","service_numbers":["40","44","44A"]},{"name":"Whitecraig Cresc","code":"58232484","latitude":"55.9204864501953","longitude":"-3.0387659072876","service_numbers":["40","44"]},{"name":"A6094 Whitecraig","code":"58232485","latitude":"55.9193420410156","longitude":"-3.04243206977844","service_numbers":["40","44","44A"]},{"name":"Newbigging","code":"58232678","latitude":"55.9418601989746","longitude":"-3.047856092453","service_numbers":["26","X26","30","40","44","44A","N26","N30"]},{"name":"Newbigging","code":"58232679","latitude":"55.9422988891602","longitude":"-3.0476279258728","service_numbers":["26","X26","30","40","44","N26"]},{"name":"Sports Centre","code":"58232683","latitude":"55.9391098022461","longitude":"-3.04766988754272","service_numbers":["30","40"]},{"name":"Rothesay Place","code":"58232684","latitude":"55.9398078918457","longitude":"-3.04816889762878","service_numbers":["30","40"]},{"name":"Police Station","code":"58232757","latitude":"55.9421691894531","longitude":"-3.05263590812683","service_numbers":["26","X26","30","40","44","44A","113","N26","N30","N44"]},{"name":"Maitland Park","code":"58232764","latitude":"55.9451751708984","longitude":"-3.07271599769592","service_numbers":["26","40","44","44A","45","113","N26","N44"]},{"name":"Edinburgh Road","code":"58232765","latitude":"55.9456367492676","longitude":"-3.07660388946533","service_numbers":["26","40","44","44A","45","113","N26","N44"]},{"name":"Edinburgh Road","code":"58232767","latitude":"55.9456977844238","longitude":"-3.07564496994019","service_numbers":["26","40","44","45","113","N26","N44"]},{"name":"Maitland Park","code":"58232768","latitude":"55.9452590942383","longitude":"-3.0725109577179","service_numbers":["26","40","44","45","113","N26","N44"]},{"name":"Mall Avenue","code":"58232784","latitude":"55.9405670166016","longitude":"-3.05712294578552","service_numbers":["40"]},{"name":"Olive Bank Road","code":"58232863","latitude":"55.9414749145508","longitude":"-3.06632208824158","service_numbers":["30","40"]},{"name":"Police Station","code":"58232865","latitude":"55.9424476623535","longitude":"-3.05161905288696","service_numbers":["26","X26","30","40","44","113","N26","N44"]},{"name":"Dunedin House","code":"58232874","latitude":"55.9430961608887","longitude":"-3.06803202629089","service_numbers":["30","40","45","N30"]},{"name":"Newhailes Road","code":"58232875","latitude":"55.9437103271484","longitude":"-3.06779193878174","service_numbers":["30","40","45","N30"]},{"name":"Olivebank Stadiu","code":"58234727","latitude":"55.941349029541","longitude":"-3.06628704071045","service_numbers":["30","40"]},{"name":"Mall Avenue","code":"58234763","latitude":"55.9404716491699","longitude":"-3.05780911445618","service_numbers":["40"]},{"name":"Inveresk Village","code":"58234764","latitude":"55.9349403381348","longitude":"-3.04334688186646","service_numbers":["40"]},{"name":"Inveresk Village","code":"58234765","latitude":"55.934871673584","longitude":"-3.04299306869507","service_numbers":["40"]},{"name":"Inveresk Kennels","code":"58234958","latitude":"55.9299583435059","longitude":"-3.04063701629639","service_numbers":["40"]},{"name":"Inveresk kennels","code":"58234959","latitude":"55.9299621582031","longitude":"-3.04034900665283","service_numbers":["40"]},{"name":"Smeaton Road End","code":"58234975","latitude":"55.9149208068848","longitude":"-3.04226589202881","service_numbers":["40"]},{"name":"Smeaton Road End","code":"58234976","latitude":"55.9149894714355","longitude":"-3.04191493988037","service_numbers":["40"]},{"name":"Musselburgh (Tes","code":"58235325","latitude":"55.9393157958984","longitude":"-3.05499196052551","service_numbers":["40"]},{"name":"Tesco","code":"58235355","latitude":"55.9393272399902","longitude":"-3.05497598648071","service_numbers":["40"]},{"name":"Pentland Road","code":"64322452","latitude":"55.878173828125","longitude":"-3.16602492332458","service_numbers":["40"]},{"name":"Bilston Cottages","code":"64323237","latitude":"55.8690605163574","longitude":"-3.17786502838135","service_numbers":["15","15A","40"]},{"name":"Roslin Road","code":"64323245","latitude":"55.8700714111328","longitude":"-3.17827892303467","service_numbers":["37","47","X37","40","67","N37"]},{"name":"Roslin Road","code":"64323246","latitude":"55.869873046875","longitude":"-3.17812991142273","service_numbers":["37","47","X37","40","67","N37"]},{"name":"Seafield Road","code":"64323247","latitude":"55.8717918395996","longitude":"-3.17692494392395","service_numbers":["37","47","X37","40","67","N37"]},{"name":"Gracemount cotta","code":"64323248","latitude":"55.8713302612305","longitude":"-3.17699098587036","service_numbers":["37","47","X37","40","67","N37"]},{"name":"Broomieknowe","code":"64323265","latitude":"55.8810043334961","longitude":"-3.11076688766479","service_numbers":["31","X31","40","N31"]},{"name":"Broomieknowe","code":"64323267","latitude":"55.8801155090332","longitude":"-3.10978198051453","service_numbers":["31","X31","40","N31"]},{"name":"Douglas Crescent","code":"64323276","latitude":"55.8752174377441","longitude":"-3.10500693321228","service_numbers":["39","40","49"]},{"name":"High Street","code":"64323278","latitude":"55.8756484985352","longitude":"-3.10677790641785","service_numbers":["31","X31","40","N31"]},{"name":"Mayfield Place","code":"64323283","latitude":"55.8759498596191","longitude":"-3.1034300327301","service_numbers":["39","40","49"]},{"name":"Mayfield Place","code":"64323284","latitude":"55.8764038085938","longitude":"-3.10296297073364","service_numbers":["39","40","49"]},{"name":"Mayshade Garden","code":"64323285","latitude":"55.8815422058105","longitude":"-3.09095907211304","service_numbers":["39","40","49"]},{"name":"Mayshade Garden","code":"64323286","latitude":"55.8816299438477","longitude":"-3.09128093719482","service_numbers":["39","40","49"]},{"name":"Park Road","code":"64323292","latitude":"55.8763694763184","longitude":"-3.10679793357849","service_numbers":["31","X31","40","N31"]},{"name":"Park Road","code":"64323293","latitude":"55.8772583007812","longitude":"-3.10762310028076","service_numbers":["31","X31","40","N31"]},{"name":"Pendreich View","code":"64323294","latitude":"55.8798828125","longitude":"-3.09538888931274","service_numbers":["39","40","49"]},{"name":"Pendreich View","code":"64323295","latitude":"55.8795738220215","longitude":"-3.09688305854797","service_numbers":["39","40","49"]},{"name":"Rockville Terrac","code":"64323296","latitude":"55.878963470459","longitude":"-3.10807108879089","service_numbers":["31","X31","40","N31"]},{"name":"Rockville Terrac","code":"64323297","latitude":"55.8786010742188","longitude":"-3.10813999176025","service_numbers":["31","X31","40","N31"]},{"name":"Viewbank Avenue","code":"64323424","latitude":"55.8804397583008","longitude":"-3.09380602836609","service_numbers":["39","40","49"]},{"name":"Waverley Crescen","code":"64323425","latitude":"55.8778610229492","longitude":"-3.10076594352722","service_numbers":["39","40","49"]},{"name":"Waverley Crescen","code":"64323426","latitude":"55.8783149719238","longitude":"-3.10030007362366","service_numbers":["39","40","49"]},{"name":"Croft Street","code":"64323482","latitude":"55.8927955627441","longitude":"-3.0730140209198","service_numbers":["3","39","40","49","N3"]},{"name":"Eskbank Toll","code":"64323486","latitude":"55.8887634277344","longitude":"-3.08001804351807","service_numbers":["3","39","40","49","N3"]},{"name":"Glenesk Crescent","code":"64323489","latitude":"55.8904228210449","longitude":"-3.07729697227478","service_numbers":["3","39","40","49","N3"]},{"name":"Glenesk Crescent","code":"64323492","latitude":"55.8896980285645","longitude":"-3.07909989356995","service_numbers":["3","39","40","49","N3"]},{"name":"Corn Exchange","code":"64323495","latitude":"55.8965911865234","longitude":"-3.0674569606781","service_numbers":["40"]},{"name":"Corn Exchange","code":"64323496","latitude":"55.8963432312012","longitude":"-3.06729102134705","service_numbers":["39","40"]},{"name":"Jarnac Court","code":"64323524","latitude":"55.8941192626953","longitude":"-3.0708429813385","service_numbers":["3","39","40","49","N3"]},{"name":"King's Park","code":"64323525","latitude":"55.8916358947754","longitude":"-3.0741970539093","service_numbers":["3","39","40","49","N3"]},{"name":"Dalkeith Parish","code":"64323538","latitude":"55.8953247070312","longitude":"-3.06847810745239","service_numbers":["40"]},{"name":"Dalkeith Parish","code":"64323539","latitude":"55.8951110839844","longitude":"-3.06845593452454","service_numbers":["39","40"]},{"name":"Shadepark","code":"64323548","latitude":"55.8974990844727","longitude":"-3.06236505508423","service_numbers":["40"]},{"name":"Shadepark","code":"64323549","latitude":"55.8974838256836","longitude":"-3.0631320476532","service_numbers":["39","40"]},{"name":"Queensway","code":"64323558","latitude":"55.8364791870117","longitude":"-3.21999311447144","service_numbers":["15","15A","37","47","X37","40","67","N37"]},{"name":"South Street","code":"64323562","latitude":"55.8935012817383","longitude":"-3.0695469379425","service_numbers":["3","33","40","49","N3"]},{"name":"Thornybank","code":"64323564","latitude":"55.896858215332","longitude":"-3.0561420917511","service_numbers":["39","40"]},{"name":"Thornyhall","code":"64323565","latitude":"55.8979644775391","longitude":"-3.05404496192932","service_numbers":["40"]},{"name":"Thornybank","code":"64323567","latitude":"55.8970832824707","longitude":"-3.05613207817078","service_numbers":["40"]},{"name":"Thornyhall","code":"64323568","latitude":"55.8975791931152","longitude":"-3.05389094352722","service_numbers":["40"]},{"name":"Westfield Park","code":"64323643","latitude":"55.8866386413574","longitude":"-3.08342790603638","service_numbers":["39","40","49"]},{"name":"Muirpark","code":"64323647","latitude":"55.8833656311035","longitude":"-3.08797311782837","service_numbers":["39","40","49"]},{"name":"Muirpark","code":"64323648","latitude":"55.8838195800781","longitude":"-3.08750605583191","service_numbers":["39","40","49"]},{"name":"Station Road","code":"64323649","latitude":"55.8877334594727","longitude":"-3.08170008659363","service_numbers":["39","40","49"]},{"name":"Westfield Park","code":"64323652","latitude":"55.8850936889648","longitude":"-3.08543109893799","service_numbers":["39","40","49"]},{"name":"Bonnyrigg Road","code":"64323653","latitude":"55.8854560852051","longitude":"-3.08531403541565","service_numbers":["39","40","49"]},{"name":"Elm Row Garage","code":"64323747","latitude":"55.8837280273438","longitude":"-3.11271500587463","service_numbers":["31","X31","40","N31"]},{"name":"Elm Row","code":"64323748","latitude":"55.8835029602051","longitude":"-3.11259698867798","service_numbers":["31","X31","40","N31"]},{"name":"Laird and Dog","code":"64323749","latitude":"55.8837509155273","longitude":"-3.11508202552795","service_numbers":["31","X31","40","N31"]},{"name":"Laird and Dog","code":"64323752","latitude":"55.8833923339844","longitude":"-3.11515092849731","service_numbers":["31","X31","40","N31"]},{"name":"Arbuthnot Road","code":"64323762","latitude":"55.877815246582","longitude":"-3.14488196372986","service_numbers":["40"]},{"name":"Mayfield Court","code":"64323763","latitude":"55.877628326416","longitude":"-3.14583611488342","service_numbers":["40"]},{"name":"George Avenue","code":"64323769","latitude":"55.8769264221191","longitude":"-3.15348792076111","service_numbers":["37","40","N37"]},{"name":"George Avenue","code":"64323782","latitude":"55.8769149780273","longitude":"-3.15476608276367","service_numbers":["37","40","N37"]},{"name":"at 1/3","code":"64323792","latitude":"55.8779296875","longitude":"-3.14232802391052","service_numbers":["40"]},{"name":"Hunter Avenue","code":"64323793","latitude":"55.8778419494629","longitude":"-3.14216589927673","service_numbers":["40"]},{"name":"McNeil Avenue","code":"64323796","latitude":"55.8761520385742","longitude":"-3.15937900543213","service_numbers":["37","40","N37"]},{"name":"McNeil Avenue","code":"64323797","latitude":"55.8763389587402","longitude":"-3.15858507156372","service_numbers":["37","40","N37"]},{"name":"Niven's Knowe Pa","code":"64323824","latitude":"55.8762283325195","longitude":"-3.17322301864624","service_numbers":["47","X37","40","67"]},{"name":"Niven's Knowe ca","code":"64323825","latitude":"55.8752708435059","longitude":"-3.17386603355408","service_numbers":["47","X37","40","67"]},{"name":"Park Avenue","code":"64323828","latitude":"55.8758659362793","longitude":"-3.161288022995","service_numbers":["37","40","N37"]},{"name":"Mayfield Ct.","code":"64323829","latitude":"55.8778877258301","longitude":"-3.14712190628052","service_numbers":["40"]},{"name":"Muirfield Garden","code":"64323832","latitude":"55.8774070739746","longitude":"-3.1503050327301","service_numbers":["37","40","N37"]},{"name":"Muirfield Garden","code":"64323834","latitude":"55.8777770996094","longitude":"-3.14903688430786","service_numbers":["37","40","N37"]},{"name":"Golf Club","code":"64323938","latitude":"55.8498039245605","longitude":"-3.19900608062744","service_numbers":["37","47","X37","40","67","N37"]},{"name":"Golf Club","code":"64323939","latitude":"55.8496131896973","longitude":"-3.20011901855469","service_numbers":["37","47","X37","40","67","N37"]},{"name":"Milton Cottages","code":"64323942","latitude":"55.8528442382812","longitude":"-3.19053792953491","service_numbers":["37","47","X37","40","67","N37"]},{"name":"Milton Cottages","code":"64323943","latitude":"55.8517532348633","longitude":"-3.19283699989319","service_numbers":["37","47","X37","40","67","N37"]},{"name":"Angle Park","code":"64324265","latitude":"55.8312721252441","longitude":"-3.22386908531189","service_numbers":["15","15A","37","47","X37","40","67"]},{"name":"Angle Park","code":"64324267","latitude":"55.8313179016113","longitude":"-3.22414207458496","service_numbers":["15","15A","37","47","X37","40","67","N37"]},{"name":"Beeslack High Sc","code":"64324269","latitude":"55.8412246704102","longitude":"-3.21247601509094","service_numbers":["15","15A","37","47","X37","40","67","N37"]},{"name":"Beeslack High Sc","code":"64324272","latitude":"55.8404998779297","longitude":"-3.21325206756592","service_numbers":["15","15A","37","47","X37","40","67","N37"]},{"name":"Cuiken Ave.","code":"64324283","latitude":"55.8334159851074","longitude":"-3.22253203392029","service_numbers":["15","15A","37","47","X37","40","67"]},{"name":"Cuiken Avenue","code":"64324284","latitude":"55.8339385986328","longitude":"-3.22230911254883","service_numbers":["15","15A","37","47","X37","40","67","N37"]},{"name":"Glencorse Barrac","code":"64324298","latitude":"55.8460731506348","longitude":"-3.20384311676025","service_numbers":["15","15A","37","47","X37","40","67","N37"]},{"name":"Glencorse Barrac","code":"64324323","latitude":"55.8460426330566","longitude":"-3.20419311523438","service_numbers":["15","15A","37","47","X37","40","67","N37"]},{"name":"John Street Lane","code":"64324328","latitude":"55.8302383422852","longitude":"-3.22410798072815","service_numbers":["15","15A","37","47","X37","40","67","N37"]},{"name":"Mauricewood Road","code":"64324346","latitude":"55.8386650085449","longitude":"-3.21718692779541","service_numbers":["15","15A","37","47","X37","40","67","N37"]},{"name":"Mauricewood Road","code":"64324347","latitude":"55.8393020629883","longitude":"-3.21640801429749","service_numbers":["15","15A","37","47","X37","40","67","N37"]},{"name":"Queensway","code":"64324357","latitude":"55.8355751037598","longitude":"-3.22060298919678","service_numbers":["15","15A","37","47","X37","40","67"]},{"name":"Samoa Terrace","code":"64324369","latitude":"55.8434371948242","longitude":"-3.20679593086243","service_numbers":["15","15A","37","47","X37","40","67","N37"]},{"name":"Samoa Terrace","code":"64324372","latitude":"55.8428764343262","longitude":"-3.20917391777039","service_numbers":["15","15A","37","47","X37","40","67","N37"]},{"name":"Town Centre Term","code":"64324373","latitude":"55.8279609680176","longitude":"-3.2216420173645","service_numbers":["15","15A","37","47","X37","40","67"]},{"name":"Town Centre","code":"64324374","latitude":"55.8278388977051","longitude":"-3.22152590751648","service_numbers":["15","15A","37","47","X37","40","67","N37"]},{"name":"Wilson Street","code":"64324376","latitude":"55.8292579650879","longitude":"-3.22311902046204","service_numbers":["15","15A","37","47","X37","40","67"]},{"name":"Wilson Street","code":"64324378","latitude":"55.8287200927734","longitude":"-3.22310304641724","service_numbers":["15","15A","37","47","X37","40","67","N37"]},{"name":"Langhill Farm","code":"64324532","latitude":"55.8649826049805","longitude":"-3.17198896408081","service_numbers":["15","15A","40"]},{"name":"Original Rosslyn","code":"64324534","latitude":"55.8571472167969","longitude":"-3.16424489021301","service_numbers":["15","15A","40"]},{"name":"Rosslyn Hotel","code":"64324535","latitude":"55.8573226928711","longitude":"-3.16472911834717","service_numbers":["15","15A","40"]},{"name":"Penicuik Road","code":"64324536","latitude":"55.855770111084","longitude":"-3.16739892959595","service_numbers":["15","15A","40"]},{"name":"Penicuik Road","code":"64324537","latitude":"55.8560066223145","longitude":"-3.16716599464417","service_numbers":["15","15A","40"]},{"name":"Roslin Institute","code":"64324538","latitude":"55.8612174987793","longitude":"-3.16923999786377","service_numbers":["15","15A","40"]},{"name":"Roslin Institute","code":"64324539","latitude":"55.8617782592773","longitude":"-3.1697518825531","service_numbers":["15","15A","40"]},{"name":"Springfield Plac","code":"64324542","latitude":"55.8596267700195","longitude":"-3.16815304756165","service_numbers":["15","15A","40"]},{"name":"Springfield Plac","code":"64324543","latitude":"55.8593597412109","longitude":"-3.1679859161377","service_numbers":["15","15A","40"]},{"name":"Station Road","code":"64324545","latitude":"55.8580322265625","longitude":"-3.1655490398407","service_numbers":["15","15A","40"]},{"name":"Station Road","code":"64324546","latitude":"55.8584747314453","longitude":"-3.1665210723877","service_numbers":["15","15A","40"]},{"name":"Woodend Park","code":"64324547","latitude":"55.8561477661133","longitude":"-3.17475891113281","service_numbers":["15","15A","40"]},{"name":"Woodend Park","code":"64324548","latitude":"55.8562431335449","longitude":"-3.17428207397461","service_numbers":["15","15A","40"]},{"name":"Tesco Hardengree","code":"64324571","latitude":"55.8825836181641","longitude":"-3.08507299423218","service_numbers":["29","39","40","49"]},{"name":"Tesco Hardengree","code":"64324572","latitude":"55.8824005126953","longitude":"-3.08506798744202","service_numbers":["29","39","40","49"]},{"name":"Wadingburn","code":"64324575","latitude":"55.8833389282227","longitude":"-3.1229190826416","service_numbers":["31","X31","40","N31"]},{"name":"Kevock Road","code":"64324578","latitude":"55.8813209533691","longitude":"-3.12836003303528","service_numbers":["40"]},{"name":"Kevock Road","code":"64324579","latitude":"55.8811225891113","longitude":"-3.12859392166138","service_numbers":["40"]},{"name":"Wadingburn","code":"64324582","latitude":"55.8836441040039","longitude":"-3.1218729019165","service_numbers":["31","X31","40","N31"]},{"name":"Bilston Cottages","code":"64324642","latitude":"55.8685874938965","longitude":"-3.17751598358154","service_numbers":["15","15A","40"]},{"name":"Gowkley Moss","code":"64324678","latitude":"55.8577346801758","longitude":"-3.18281102180481","service_numbers":["15","15A","40"]},{"name":"Gowkley Moss","code":"64324679","latitude":"55.8578453063965","longitude":"-3.18236708641052","service_numbers":["15","15A","40"]},{"name":"Roslin Surgery","code":"64324743","latitude":"55.8572692871094","longitude":"-3.17888307571411","service_numbers":["15","15A","40"]},{"name":"Roslin Surgery","code":"64324745","latitude":"55.857234954834","longitude":"-3.17956900596619","service_numbers":["15","15A","40"]},{"name":"Dryden Terrace","code":"64326946","latitude":"55.8760223388672","longitude":"-3.16295504570007","service_numbers":["40"]},{"name":"Dryden Terrace","code":"64327946","latitude":"55.8770942687988","longitude":"-3.16354703903198","service_numbers":["40"]},{"name":"Asda Straiton","code":"64329348","latitude":"55.8784675598145","longitude":"-3.17116498947144","service_numbers":["47","X37","40","67"]}];