var Stops = Stops || {};Stops['X26'] = [{"name":"The Dome","code":"36232389","latitude":"55.9538269042969","longitude":"-3.19514107704163","service_numbers":["1","23","26","X26","36","X37","41","42","X44","67","ET1","MA1","WHT","N26"]},{"name":"Frederick Street","code":"36232543","latitude":"55.9511985778809","longitude":"-3.20111298561096","service_numbers":["12","X12","26","X26","31","X31","33","CS1","N26"]},{"name":"Caledonian Hotel","code":"36232692","latitude":"55.9492378234863","longitude":"-3.20689797401428","service_numbers":["1","4","10","11","15","15A","16","22","24","25","X25","X26","34","47","44","X44","N11","N16","N22","N31","N34","N44"]},{"name":"Abbeyhill","code":"36234256","latitude":"55.9574279785156","longitude":"-3.16803789138794","service_numbers":["4","5","15","26","X26","44","X44","45","113","N26","N44"]},{"name":"Meadowbank House","code":"36234263","latitude":"55.9551887512207","longitude":"-3.15123295783997","service_numbers":["4","5","15","26","X26","44","X44","45","113","N26","N44"]},{"name":"Westbank Place","code":"36234278","latitude":"55.956672668457","longitude":"-3.12078094482422","service_numbers":["15","26","X26","40","45","113","N26"]},{"name":"PortobelloTown H","code":"36234283","latitude":"55.9532127380371","longitude":"-3.11473894119263","service_numbers":["15","26","X26","40","45","N26"]},{"name":"PortobelloTown H","code":"36234574","latitude":"55.9535827636719","longitude":"-3.11572694778442","service_numbers":["15","26","X26","40","45","N26"]},{"name":"Kings Road","code":"36234578","latitude":"55.9568367004395","longitude":"-3.12140989303589","service_numbers":["15","21","25","26","X26","40","42","45","49","69","113","N26"]},{"name":"St Margarets Hou","code":"36234737","latitude":"55.9551239013672","longitude":"-3.15240001678467","service_numbers":["4","5","15","26","X26","44","44A","X44","45","113","N26","N44"]},{"name":"Cadzow Place","code":"36234743","latitude":"55.957275390625","longitude":"-3.16792106628418","service_numbers":["4","5","15","19","26","X26","34","44","44A","X44","45","113","N26","N44"]},{"name":"St Andrews House","code":"36235893","latitude":"55.9538993835449","longitude":"-3.18289089202881","service_numbers":["X26","X44","113"]},{"name":"at St Andrews Ho","code":"36235894","latitude":"55.9535942077637","longitude":"-3.18270492553711","service_numbers":["X26","X44","113","CS1"]},{"name":"Regent Terrace","code":"36235895","latitude":"55.9534034729004","longitude":"-3.17930388450623","service_numbers":["X26","X44","113","CS1"]},{"name":"Regent Terrace","code":"36235896","latitude":"55.9536972045898","longitude":"-3.17867207527161","service_numbers":["X26","X44","113"]},{"name":"Castle Street","code":"36235973","latitude":"55.9514045715332","longitude":"-3.20097589492798","service_numbers":["1","4","15","15A","26","X26","34","44","X44","N26","N34","N44"]},{"name":"Montrose Terrace","code":"36236746","latitude":"55.9565925598145","longitude":"-3.17182493209839","service_numbers":["X26","X44","113"]},{"name":"The Exchange","code":"36236754","latitude":"55.9478454589844","longitude":"-3.20744705200195","service_numbers":["X12","22","X25","X26","30","X31","X44","N22","N30"]},{"name":"Easter Road","code":"36236757","latitude":"55.9559898376465","longitude":"-3.17302393913269","service_numbers":["X26","X44","113"]},{"name":"Regent Bridge","code":"36236782","latitude":"55.9538116455078","longitude":"-3.18718004226685","service_numbers":["X12","25","X25","X26","34","44","X44","113"]},{"name":"Waterloo Place","code":"36236783","latitude":"55.9535751342773","longitude":"-3.18768501281738","service_numbers":["X12","22","25","X25","X26","44","X44","113","CS1"]},{"name":"Clerwood","code":"36238285","latitude":"55.9499626159668","longitude":"-3.27908205986023","service_numbers":["26","X26"]},{"name":"Abbeymount","code":"36243272","latitude":"55.9557266235352","longitude":"-3.17312788963318","service_numbers":["X26","X44","113","CS1"]},{"name":"Castle Street","code":"36246256","latitude":"55.9507637023926","longitude":"-3.20331001281738","service_numbers":["10","11","12","X12","15","15A","16","24","26","X26","31","X31","N16","N26"]},{"name":"outside GAP","code":"36246267","latitude":"55.9507484436035","longitude":"-3.20483088493347","service_numbers":["1","4","15","15A","26","X26","34","44","X44","N26","N34","N44"]},{"name":"outside Jenners","code":"36253279","latitude":"55.9526329040527","longitude":"-3.19396710395813","service_numbers":["4","15","15A","24","26","X26","42","44","X44","113","N3","N11","N16","N22","N26","N30","N31","N34","N37","N44"]},{"name":"Melville Street","code":"36253572","latitude":"55.9507217407227","longitude":"-3.21202111244202","service_numbers":["12","X12","26","X26","X44","N26"]},{"name":"Palmerston Place","code":"36253575","latitude":"55.9474601745605","longitude":"-3.2159059047699","service_numbers":["3","12","X12","26","X26","31","X31","42","X44","C134","N26"]},{"name":"Ravensheugh","code":"58232323","latitude":"55.9449119567871","longitude":"-3.02581000328064","service_numbers":["26","X26","N26"]},{"name":"Hope Place","code":"58232324","latitude":"55.9451904296875","longitude":"-3.02469706535339","service_numbers":["26","X26","N26"]},{"name":"Ravensheugh Cres","code":"58232325","latitude":"55.9463768005371","longitude":"-3.02248597145081","service_numbers":["26","X26","N26"]},{"name":"Ravensheugh","code":"58232326","latitude":"55.9463768005371","longitude":"-3.02232599258423","service_numbers":["26","X26","N26"]},{"name":"Westpans","code":"58232327","latitude":"55.9480171203613","longitude":"-3.01948690414429","service_numbers":["26","X26","N26"]},{"name":"Westpans","code":"58232328","latitude":"55.9477462768555","longitude":"-3.01979994773865","service_numbers":["26","X26","N26"]},{"name":"Heritage Museum","code":"58232329","latitude":"55.9494857788086","longitude":"-3.01457691192627","service_numbers":["26","X26","N26"]},{"name":"Heritage Museum","code":"58232342","latitude":"55.9497184753418","longitude":"-3.01360702514648","service_numbers":["26","X26","N26"]},{"name":"Morrison's Haven","code":"58232343","latitude":"55.9533843994141","longitude":"-3.00487804412842","service_numbers":["26","X26","N26"]},{"name":"Burns yard","code":"58232345","latitude":"55.954044342041","longitude":"-3.0001220703125","service_numbers":["26","X26","N26"]},{"name":"Bowling Club","code":"58232346","latitude":"55.9549407958984","longitude":"-2.9979829788208","service_numbers":["26","X26","N26"]},{"name":"Bowling Club","code":"58232347","latitude":"55.9550247192383","longitude":"-2.99756908416748","service_numbers":["26","X26","N26"]},{"name":"Inchview","code":"58232349","latitude":"55.9562187194824","longitude":"-2.99471592903137","service_numbers":["26","X26","N26"]},{"name":"Inchview","code":"58232352","latitude":"55.9564895629883","longitude":"-2.99424290657043","service_numbers":["26","X26","N26"]},{"name":"Ox Walk","code":"58232353","latitude":"55.9570465087891","longitude":"-2.99201488494873","service_numbers":["26","X26","N26"]},{"name":"The Pottery","code":"58232354","latitude":"55.9575958251953","longitude":"-2.99106788635254","service_numbers":["26","X26","N26"]},{"name":"Cemetery","code":"58232356","latitude":"55.9583587646484","longitude":"-2.98786807060242","service_numbers":["26","X26","N26"]},{"name":"cemetery","code":"58232357","latitude":"55.9587059020996","longitude":"-2.98709201812744","service_numbers":["26","X26","N26"]},{"name":"Ayres Wynd","code":"58232358","latitude":"55.9592628479004","longitude":"-2.98486399650574","service_numbers":["26","X26","N26"]},{"name":"Ayres Wynd","code":"58232359","latitude":"55.9599876403809","longitude":"-2.98376107215881","service_numbers":["26","X26"]},{"name":"supermarket","code":"58232362","latitude":"55.9612693786621","longitude":"-2.98091006278992","service_numbers":["26","X26"]},{"name":"Harlaw Hill","code":"58232363","latitude":"55.9615478515625","longitude":"-2.97979593276978","service_numbers":["26","X26","N26"]},{"name":"Robertson Ave","code":"58232364","latitude":"55.9625587463379","longitude":"-2.97725796699524","service_numbers":["26","X26","N26"]},{"name":"obertson Ave.","code":"58232365","latitude":"55.9628295898438","longitude":"-2.97694396972656","service_numbers":["26","X26"]},{"name":"Power Station","code":"58232383","latitude":"55.9658355712891","longitude":"-2.97173404693604","service_numbers":["26","X26"]},{"name":"Power Station","code":"58232384","latitude":"55.9688377380371","longitude":"-2.96708202362061","service_numbers":["26","X26"]},{"name":"Power Station","code":"58232385","latitude":"55.9689407348633","longitude":"-2.96556305885315","service_numbers":["26","X26","N26"]},{"name":"North Lorimer Pl","code":"58232386","latitude":"55.9692230224609","longitude":"-2.96364688873291","service_numbers":["26","X26","N26"]},{"name":"East Lorimer Pla","code":"58232387","latitude":"55.9692192077637","longitude":"-2.96412801742554","service_numbers":["26","X26"]},{"name":"Cadell Place","code":"58232389","latitude":"55.9696006774902","longitude":"-2.96141409873962","service_numbers":["26","X26","N26"]},{"name":"School Lane","code":"58232392","latitude":"55.9698715209961","longitude":"-2.96126008033752","service_numbers":["26","X26"]},{"name":"Inglis Avenue","code":"58232393","latitude":"55.9706230163574","longitude":"-2.95711302757263","service_numbers":["26","X26","N26"]},{"name":"Inglis Avenue","code":"58232394","latitude":"55.9708938598633","longitude":"-2.95679903030396","service_numbers":["26","X26"]},{"name":"Gosford Road","code":"58232395","latitude":"55.9710845947266","longitude":"-2.95552206039429","service_numbers":["26","X26","N26"]},{"name":"Gosford Road","code":"58232396","latitude":"55.9712944030762","longitude":"-2.95520710945129","service_numbers":["26","X26"]},{"name":"post office","code":"58232397","latitude":"55.971549987793","longitude":"-2.95328998565674","service_numbers":["26","X26","N26"]},{"name":"Harbour takeaway","code":"58232398","latitude":"55.9718246459961","longitude":"-2.95249605178833","service_numbers":["26","X26"]},{"name":"Port Seton (Fish","code":"58232423","latitude":"55.9721145629883","longitude":"-2.94993901252747","service_numbers":["26","X26","N26"]},{"name":"Port Seton (Link","code":"58232424","latitude":"55.9721984863281","longitude":"-2.95074200630188","service_numbers":["26","X26"]},{"name":"Castle Terrace","code":"58232425","latitude":"55.9721527099609","longitude":"-2.94529294967651","service_numbers":["26","X26"]},{"name":"Castle Terrace","code":"58232426","latitude":"55.9722518920898","longitude":"-2.94401407241821","service_numbers":["26","X26"]},{"name":"Long Craigs","code":"58232427","latitude":"55.9721832275391","longitude":"-2.94096803665161","service_numbers":["26","X26"]},{"name":"Long Craigs","code":"58232428","latitude":"55.9720001220703","longitude":"-2.94176506996155","service_numbers":["26","X26"]},{"name":"Rowanhall Drive","code":"58232536","latitude":"55.9656143188477","longitude":"-2.95418500900269","service_numbers":["X26"]},{"name":"Rowanhill Drive","code":"58232537","latitude":"55.9658279418945","longitude":"-2.95435094833374","service_numbers":["X26","N26"]},{"name":"Sycamore Avenue","code":"58232538","latitude":"55.9664878845215","longitude":"-2.95007395744324","service_numbers":["X26"]},{"name":"Sycamore Avenue","code":"58232539","latitude":"55.9668426513672","longitude":"-2.94985795021057","service_numbers":["X26","N26"]},{"name":"Poplar Park","code":"58232542","latitude":"55.9673805236816","longitude":"-2.94772505760193","service_numbers":["X26"]},{"name":"Poplar Park","code":"58232543","latitude":"55.9675559997559","longitude":"-2.94793701171875","service_numbers":["X26","N26"]},{"name":"Seton Wynd","code":"58232545","latitude":"55.9688606262207","longitude":"-2.94181704521179","service_numbers":["X26"]},{"name":"Seton Wynd","code":"58232546","latitude":"55.969066619873","longitude":"-2.94211006164551","service_numbers":["X26","N26"]},{"name":"Forth Wynd","code":"58232547","latitude":"55.9704284667969","longitude":"-2.94025301933289","service_numbers":["X26","N26"]},{"name":"Forth Wynd","code":"58232548","latitude":"55.9706382751465","longitude":"-2.94004893302917","service_numbers":["X26"]},{"name":"Pinkie Road","code":"58232648","latitude":"55.9434623718262","longitude":"-3.02721309661865","service_numbers":["26","X26","44","44A","N26"]},{"name":"Pinkie Road","code":"58232649","latitude":"55.9429473876953","longitude":"-3.02932906150818","service_numbers":["26","X26","44","N26"]},{"name":"Pinkie Road","code":"58232652","latitude":"55.9424133300781","longitude":"-3.03123593330383","service_numbers":["26","X26","44","44A","N26"]},{"name":"Pinkie Road","code":"58232653","latitude":"55.9414024353027","longitude":"-3.03609204292297","service_numbers":["26","X26","44","N26"]},{"name":"Pinkie Road","code":"58232654","latitude":"55.9417953491211","longitude":"-3.03392505645752","service_numbers":["26","X26","44","44A","N26"]},{"name":"Edenhall Road","code":"58232672","latitude":"55.9411239624023","longitude":"-3.0380380153656","service_numbers":["26","X26","44","44A","N26"]},{"name":"St Peters Sch.","code":"58232673","latitude":"55.941104888916","longitude":"-3.04027891159058","service_numbers":["26","X26","44","N26"]},{"name":"Park Lane","code":"58232674","latitude":"55.9408264160156","longitude":"-3.04123210906982","service_numbers":["26","X26","44","44A","N26"]},{"name":"King Street","code":"58232675","latitude":"55.9404220581055","longitude":"-3.04650402069092","service_numbers":["26","X26","44","N26"]},{"name":"King Street","code":"58232676","latitude":"55.9402084350586","longitude":"-3.04657888412476","service_numbers":["26","X26","44","44A","N26"]},{"name":"Newbigging","code":"58232678","latitude":"55.9418601989746","longitude":"-3.047856092453","service_numbers":["26","X26","30","40","44","44A","N26","N30"]},{"name":"Newbigging","code":"58232679","latitude":"55.9422988891602","longitude":"-3.0476279258728","service_numbers":["26","X26","30","40","44","N26"]},{"name":"Police Station","code":"58232757","latitude":"55.9421691894531","longitude":"-3.05263590812683","service_numbers":["26","X26","30","40","44","44A","113","N26","N30","N44"]},{"name":"Health Centre","code":"58232758","latitude":"55.9427795410156","longitude":"-3.05582308769226","service_numbers":["26","X26","30","44","44A","113","N26","N30","N44"]},{"name":"Hayweights","code":"58232759","latitude":"55.943904876709","longitude":"-3.05958390235901","service_numbers":["26","X26","30","44","44A","113","N26","N30","N44"]},{"name":"North High St","code":"58232762","latitude":"55.9438972473145","longitude":"-3.06253004074097","service_numbers":["26","X26","30","44","44A","113","N26","N30","N44"]},{"name":"The Ship Inn","code":"58232763","latitude":"55.9439353942871","longitude":"-3.06563711166382","service_numbers":["26","X26","30","44","44A","113","N26","N30","N44"]},{"name":"North High Stree","code":"58232769","latitude":"55.9440078735352","longitude":"-3.06434202194214","service_numbers":["26","X26","30","44","113","N26","N30","N44"]},{"name":"Hayweights","code":"58232782","latitude":"55.9439888000488","longitude":"-3.05848097801208","service_numbers":["26","X26","30","44","113","N26","N30","N44"]},{"name":"Health Centre","code":"58232783","latitude":"55.9428977966309","longitude":"-3.05576205253601","service_numbers":["26","X26","30","44","113","N26","N30","N44"]},{"name":"Police Station","code":"58232865","latitude":"55.9424476623535","longitude":"-3.05161905288696","service_numbers":["26","X26","30","40","44","113","N26","N44"]},{"name":"Pinkie Road","code":"58234692","latitude":"55.9420166015625","longitude":"-3.03337097167969","service_numbers":["26","X26","44","N26"]},{"name":"Cockenzie Pwr St","code":"58234735","latitude":"55.9656562805176","longitude":"-2.97188901901245","service_numbers":["26","X26","N26"]},{"name":"Heritage Museum","code":"58234756","latitude":"55.9529113769531","longitude":"-3.00686693191528","service_numbers":["26","X26","N26"]}];