var Stops = Stops || {};Stops['34'] = [{"name":"Mill Lane","code":"36232323","latitude":"55.9746971130371","longitude":"-3.17844605445862","service_numbers":["7","10","14","21","34"]},{"name":"Mill Lane","code":"36232324","latitude":"55.974781036377","longitude":"-3.17827200889587","service_numbers":["7","10","14","21","34","MA1"]},{"name":"Scott Monument","code":"36232534","latitude":"55.9524726867676","longitude":"-3.19487500190735","service_numbers":["1","19","31","X31","34","37","X37"]},{"name":"Castle Street","code":"36232545","latitude":"55.9510841369629","longitude":"-3.20176601409912","service_numbers":["1","3","4","22","25","X25","30","33","34","44","44A","X44","N22","N25","N30","N34","N44"]},{"name":"Rutland Street","code":"36232547","latitude":"55.949535369873","longitude":"-3.20679497718811","service_numbers":["1","22","30","34","100","N22","N30","N34"]},{"name":"Usher Hall","code":"36232549","latitude":"55.947151184082","longitude":"-3.20582389831543","service_numbers":["1","10","11","15","15A","16","24","34","47","N16","N34"]},{"name":"Leopold Place","code":"36232578","latitude":"55.9580078125","longitude":"-3.18272805213928","service_numbers":["1","19","34","MA1"]},{"name":"Hillside Crescen","code":"36232579","latitude":"55.9579277038574","longitude":"-3.17896103858948","service_numbers":["1","4","5","15","19","26","34","44","45","MA1","N26","N44"]},{"name":"Wellington Stree","code":"36232582","latitude":"55.9578666687012","longitude":"-3.1765730381012","service_numbers":["1","4","5","15","19","26","34","44","45","MA1","N26","N44"]},{"name":"Brunton Terrace","code":"36232583","latitude":"55.9577560424805","longitude":"-3.17306089401245","service_numbers":["4","5","15","19","26","34","44","45","MA1","N26","N44"]},{"name":"Parkhead Drive","code":"36232586","latitude":"55.925407409668","longitude":"-3.26759791374207","service_numbers":["3","25","30","33","34","38","109","N30","N34"]},{"name":"Longstone Terrac","code":"36232587","latitude":"55.9257469177246","longitude":"-3.26936888694763","service_numbers":["3","30","33","34","109","N30","N34"]},{"name":"Caledonian Hotel","code":"36232692","latitude":"55.9492378234863","longitude":"-3.20689797401428","service_numbers":["1","4","10","11","15","15A","16","22","24","25","X25","X26","34","47","44","X44","N11","N16","N22","N31","N34","N44"]},{"name":"Restalrig Square","code":"36232927","latitude":"55.9636344909668","longitude":"-3.1540470123291","service_numbers":["21","25","34","42"]},{"name":"Lochend Kirk","code":"36232956","latitude":"55.9626502990723","longitude":"-3.1536169052124","service_numbers":["21","25","34"]},{"name":"Abbeyhill","code":"36234254","latitude":"55.9574584960938","longitude":"-3.16866397857666","service_numbers":["19","34"]},{"name":"Abbey Lane","code":"36234257","latitude":"55.957145690918","longitude":"-3.16541910171509","service_numbers":["19","34"]},{"name":"Cadzow Place","code":"36234743","latitude":"55.957275390625","longitude":"-3.16792106628418","service_numbers":["4","5","15","19","26","X26","34","44","44A","X44","45","113","N26","N44"]},{"name":"Brunton Place","code":"36234745","latitude":"55.957592010498","longitude":"-3.17336106300354","service_numbers":["1","4","5","15","19","26","34","44","44A","45","N26","N44"]},{"name":"Brunton","code":"36234746","latitude":"55.9576797485352","longitude":"-3.17659902572632","service_numbers":["1","4","5","15","19","26","34","44","44A","45","N26","N44"]},{"name":"Brunswick Road","code":"36234747","latitude":"55.957763671875","longitude":"-3.18014097213745","service_numbers":["1","4","5","15","19","26","34","44","44A","45","N26","N44"]},{"name":"Leopold Place","code":"36234748","latitude":"55.9578323364258","longitude":"-3.18301105499268","service_numbers":["1","4","5","15","19","26","34","44","44A","45","N26","N44"]},{"name":"Parkhead Terrace","code":"36234858","latitude":"55.9259948730469","longitude":"-3.2716178894043","service_numbers":["3","25","34","35","109","N25","N34"]},{"name":"St Josephs Prima","code":"36234859","latitude":"55.9247741699219","longitude":"-3.27663493156433","service_numbers":["3","25","34","35","109","N25","N34"]},{"name":"Sighthill","code":"36234862","latitude":"55.9235076904297","longitude":"-3.28281903266907","service_numbers":["3","21","25","32","34","35","109","N25","N34"]},{"name":"Sighthill Shops","code":"36234863","latitude":"55.9228439331055","longitude":"-3.28761410713196","service_numbers":["3","21","25","X25","32","34","35","109","N25","N34"]},{"name":"Bankhead Roundab","code":"36234864","latitude":"55.9219093322754","longitude":"-3.29289603233337","service_numbers":["25","X25","32","34","109","N25","N34"]},{"name":"Calder View","code":"36234866","latitude":"55.9208450317383","longitude":"-3.29828596115112","service_numbers":["25","32","34"]},{"name":"Calder View","code":"36234867","latitude":"55.9208450317383","longitude":"-3.29828596115112","service_numbers":["25","X25","34","109","N25","N34"]},{"name":"The Avenue","code":"36234873","latitude":"55.9102554321289","longitude":"-3.31740188598633","service_numbers":["20","25","X25","34","45","N25","N34"]},{"name":"Heriot Watt Univ","code":"36234874","latitude":"55.909049987793","longitude":"-3.3200159072876","service_numbers":["25","X25","34","44","45"]},{"name":"The Avenue","code":"36234875","latitude":"55.9105911254883","longitude":"-3.31699705123901","service_numbers":["25","X25","34","45","N25","N34"]},{"name":"Burtons Biscuits","code":"36234893","latitude":"55.9215393066406","longitude":"-3.2963240146637","service_numbers":["25","X25","34","109","N25","N34"]},{"name":"Hall Drive","code":"36235359","latitude":"55.923713684082","longitude":"-3.25203490257263","service_numbers":["20","34","N34"]},{"name":"Hall Drive","code":"36235362","latitude":"55.9239921569824","longitude":"-3.25225210189819","service_numbers":["20","34","44","44A","N34"]},{"name":"Longstone Inn","code":"36235363","latitude":"55.9252967834473","longitude":"-3.2583429813385","service_numbers":["20","34","N34"]},{"name":"Longstone Inn","code":"36235364","latitude":"55.9255027770996","longitude":"-3.2590069770813","service_numbers":["20","34","44","44A","N34"]},{"name":"at 6 Longstone C","code":"36235365","latitude":"55.9251823425293","longitude":"-3.2634289264679","service_numbers":["20","34","44","44A","N34"]},{"name":"opp Longstone Cr","code":"36235367","latitude":"55.9250907897949","longitude":"-3.26342606544495","service_numbers":["20","34","44","N34"]},{"name":"Lochend Park","code":"36235638","latitude":"55.9634628295898","longitude":"-3.16093111038208","service_numbers":["34","49"]},{"name":"Woodville Terrac","code":"36235639","latitude":"55.9648628234863","longitude":"-3.16286301612854","service_numbers":["34","49"]},{"name":"Duncan Place","code":"36235642","latitude":"55.9691009521484","longitude":"-3.16803693771362","service_numbers":["2","12","21","22","25","X25","X31","34","35","42","49"]},{"name":"Academy Street","code":"36235643","latitude":"55.9699859619141","longitude":"-3.16953802108765","service_numbers":["12","21","25","34","35","42","49"]},{"name":"Academy Street","code":"36235645","latitude":"55.9701309204102","longitude":"-3.17019891738892","service_numbers":["12","21","25","34","35","49"]},{"name":"Primrose Street","code":"36235649","latitude":"55.9682769775391","longitude":"-3.1659619808197","service_numbers":["34","49"]},{"name":"Woodville Terrac","code":"36235652","latitude":"55.9661026000977","longitude":"-3.16381311416626","service_numbers":["34","49"]},{"name":"Hermitage Park G","code":"36235653","latitude":"55.9647407531738","longitude":"-3.16247510910034","service_numbers":["34","49"]},{"name":"Lochend Park","code":"36235654","latitude":"55.9628715515137","longitude":"-3.15974402427673","service_numbers":["34","49"]},{"name":"Burns Street","code":"36235656","latitude":"55.9685401916504","longitude":"-3.16651391983032","service_numbers":["34","49"]},{"name":"Woodville Terrac","code":"36235657","latitude":"55.9664573669434","longitude":"-3.16425704956055","service_numbers":["34","49"]},{"name":"Sleigh Drive","code":"36235658","latitude":"55.9627876281738","longitude":"-3.15788292884827","service_numbers":["34"]},{"name":"Lochend Road Sou","code":"36235659","latitude":"55.963062286377","longitude":"-3.15739393234253","service_numbers":["34"]},{"name":"Restalrig Road S","code":"36235672","latitude":"55.9636611938477","longitude":"-3.15502500534058","service_numbers":["34"]},{"name":"Sleigh Drive","code":"36235674","latitude":"55.9617729187012","longitude":"-3.15242195129395","service_numbers":["19","34"]},{"name":"Restalrig Garden","code":"36235675","latitude":"55.9606742858887","longitude":"-3.15136408805847","service_numbers":["19","34"]},{"name":"Restalrig","code":"36235676","latitude":"55.9594039916992","longitude":"-3.15094208717346","service_numbers":["19","34"]},{"name":"Marionville Driv","code":"36235678","latitude":"55.9595413208008","longitude":"-3.15152311325073","service_numbers":["19","34"]},{"name":"Marionville","code":"36235679","latitude":"55.9591941833496","longitude":"-3.15521311759949","service_numbers":["19","34"]},{"name":"Lochend Drive","code":"36235682","latitude":"55.9612159729004","longitude":"-3.15214896202087","service_numbers":["19","34"]},{"name":"Cables Wynd","code":"36235723","latitude":"55.9732284545898","longitude":"-3.17622208595276","service_numbers":["7","10","14","21","34"]},{"name":"Cables Wynd","code":"36235724","latitude":"55.9733276367188","longitude":"-3.17601609230042","service_numbers":["7","10","14","21","34","MA1"]},{"name":"Prince Regent St","code":"36235725","latitude":"55.9770584106445","longitude":"-3.17963910102844","service_numbers":["10","21","34","MA1"]},{"name":"Prince Regent St","code":"36235726","latitude":"55.9766807556152","longitude":"-3.179692029953","service_numbers":["10","34"]},{"name":"at bowling green","code":"36235948","latitude":"55.9232025146484","longitude":"-3.24841809272766","service_numbers":["20","34","44","N34","N44"]},{"name":"Inglis Green Roa","code":"36235949","latitude":"55.9232749938965","longitude":"-3.24773192405701","service_numbers":["20","34","44","44A","N34","N44"]},{"name":"Usher Hall","code":"36235967","latitude":"55.9464874267578","longitude":"-3.20588397979736","service_numbers":["1","10","11","15","15A","16","24","34","47","N11","N16","N34"]},{"name":"Castle Street","code":"36235973","latitude":"55.9514045715332","longitude":"-3.20097589492798","service_numbers":["1","4","15","15A","26","X26","34","44","X44","N26","N34","N44"]},{"name":"Semple Street","code":"36236392","latitude":"55.9449195861816","longitude":"-3.20649099349976","service_numbers":["1","2","34","35","N34"]},{"name":"Port Hamilton","code":"36236485","latitude":"55.9434394836426","longitude":"-3.20804595947266","service_numbers":["1","34","35","N34"]},{"name":"Gilmore Park","code":"36236486","latitude":"55.9424247741699","longitude":"-3.21243405342102","service_numbers":["1","34","35","N34"]},{"name":"Grove Street","code":"36236487","latitude":"55.9430351257324","longitude":"-3.21059608459473","service_numbers":["1","34","35","N34"]},{"name":"Fountainpark","code":"36236489","latitude":"55.9412422180176","longitude":"-3.21585488319397","service_numbers":["1","34","35","N34"]},{"name":"Fountainpark","code":"36236492","latitude":"55.9407958984375","longitude":"-3.21721792221069","service_numbers":["1","34","35","N34"]},{"name":"Dundee Terrace","code":"36236493","latitude":"55.9401512145996","longitude":"-3.21897506713867","service_numbers":["1","34","35","N34"]},{"name":"Dundee Terrace","code":"36236494","latitude":"55.9399108886719","longitude":"-3.22127294540405","service_numbers":["1","34","35","N34"]},{"name":"Viewforth","code":"36236495","latitude":"55.9419631958008","longitude":"-3.21442103385925","service_numbers":["1","34","35","N34"]},{"name":"Angle Park Terra","code":"36236496","latitude":"55.9386787414551","longitude":"-3.22397208213806","service_numbers":["34","35","N34"]},{"name":"Angle Park Terra","code":"36236497","latitude":"55.9378929138184","longitude":"-3.22529196739197","service_numbers":["34","35","N34"]},{"name":"St Michaels","code":"36236498","latitude":"55.9367828369141","longitude":"-3.22756195068359","service_numbers":["4","34","35","44","44A","N34","N44"]},{"name":"Laurel Terrace","code":"36236523","latitude":"55.9366722106934","longitude":"-3.22815108299255","service_numbers":["4","34","35","44","N34","N44"]},{"name":"Caledonian Brewe","code":"36236524","latitude":"55.9354476928711","longitude":"-3.23096203804016","service_numbers":["4","34","35","44","X44","N34","N44"]},{"name":"Shandon","code":"36236525","latitude":"55.9350547790527","longitude":"-3.23144602775574","service_numbers":["4","34","35","44","44A","X44","N34","N44"]},{"name":"Hermand Street","code":"36236526","latitude":"55.933650970459","longitude":"-3.23441100120544","service_numbers":["4","34","35","44","44A","N34","N44"]},{"name":"Moat Drive","code":"36236527","latitude":"55.9324607849121","longitude":"-3.23677396774292","service_numbers":["4","34","35","44","N34","N44"]},{"name":"Moat Drive","code":"36236528","latitude":"55.930736541748","longitude":"-3.23848009109497","service_numbers":["4","34","35","44","44A","N34","N44"]},{"name":"Hutchison Grove","code":"36236529","latitude":"55.930004119873","longitude":"-3.23973703384399","service_numbers":["4","34","35","44","N34","N44"]},{"name":"Hutchison Cottag","code":"36236532","latitude":"55.9294624328613","longitude":"-3.24004006385803","service_numbers":["4","34","35","44","44A","N34","N44"]},{"name":"Slateford Statio","code":"36236535","latitude":"55.9272232055664","longitude":"-3.24297690391541","service_numbers":["4","34","35","44","44A","X44","N34","N44"]},{"name":"Slateford Statio","code":"36236536","latitude":"55.9272804260254","longitude":"-3.24328303337097","service_numbers":["4","34","35","44","X44","N34","N44"]},{"name":"Hutchison Place","code":"36236537","latitude":"55.9284133911133","longitude":"-3.24157500267029","service_numbers":["4","34","35","44","N34","N44"]},{"name":"Meadowbank","code":"36236747","latitude":"55.9575042724609","longitude":"-3.16016006469727","service_numbers":["19","34"]},{"name":"Meadowbank Stati","code":"36236748","latitude":"55.9580154418945","longitude":"-3.15833306312561","service_numbers":["19","34"]},{"name":"Marionville Park","code":"36236749","latitude":"55.9588165283203","longitude":"-3.15691494941711","service_numbers":["19","34"]},{"name":"Calder Road","code":"36236752","latitude":"55.9257545471191","longitude":"-3.2688889503479","service_numbers":["25","30","33","34","35","38","109","N30","N34"]},{"name":"Regent Bridge","code":"36236782","latitude":"55.9538116455078","longitude":"-3.18718004226685","service_numbers":["X12","25","X25","X26","34","44","X44","113"]},{"name":"Bankhead Avenue","code":"36236867","latitude":"55.9249496459961","longitude":"-3.29270911216736","service_numbers":["18","20","32","34","35"]},{"name":"Sime Malloch","code":"36236869","latitude":"55.9268798828125","longitude":"-3.29366993904114","service_numbers":["18","20","32","34","35"]},{"name":"Calder Road","code":"36236874","latitude":"55.9229125976562","longitude":"-3.29168105125427","service_numbers":["18","20","32","34","35"]},{"name":"Bankhead Avenue","code":"36236875","latitude":"55.9269981384277","longitude":"-3.29429793357849","service_numbers":["20","34"]},{"name":"Napier Universit","code":"36236876","latitude":"55.9227561950684","longitude":"-3.29009199142456","service_numbers":["3","21","25","X25","32","34","35","109","N25","N34"]},{"name":"Sighthill","code":"36236878","latitude":"55.9233894348145","longitude":"-3.28540802001953","service_numbers":["3","21","25","X25","32","34","35","109","N25","N34"]},{"name":"Broomhouse","code":"36236879","latitude":"55.9243965148926","longitude":"-3.27947211265564","service_numbers":["3","25","34","35","109","N25","N34"]},{"name":"St Josephs Schoo","code":"36236892","latitude":"55.9251556396484","longitude":"-3.27618408203125","service_numbers":["3","25","34","35","109","N25","N34"]},{"name":"Junction Place","code":"36237342","latitude":"55.9722633361816","longitude":"-3.17470192909241","service_numbers":["7","10","14","21","34","36"]},{"name":"Kirkgate Centre","code":"36237343","latitude":"55.9711494445801","longitude":"-3.17288994789124","service_numbers":["7","10","14","21","22","34","35","N22"]},{"name":"Kirkgate Centre","code":"36237345","latitude":"55.9712905883789","longitude":"-3.17292594909668","service_numbers":["7","10","14","21","22","34","35","N22"]},{"name":"Royal Scottish A","code":"36237983","latitude":"55.9520874023438","longitude":"-3.19571208953857","service_numbers":["1","3","4","22","25","30","33","34","44","44A","N16","N22","N25","N26","N30","N34","N37","N44"]},{"name":"Allan Park","code":"36238754","latitude":"55.9250907897949","longitude":"-3.24561405181885","service_numbers":["4","20","34","44","44A","N34","N44"]},{"name":"Allan Park","code":"36238756","latitude":"55.9247283935547","longitude":"-3.24612998962402","service_numbers":["4","20","34","44","N34","N44"]},{"name":"Holiday Inn","code":"36239392","latitude":"55.9788665771484","longitude":"-3.18023896217346","service_numbers":["11","22","34","35","36","N22"]},{"name":"Holiday Inn","code":"36239397","latitude":"55.9786834716797","longitude":"-3.17983293533325","service_numbers":["11","21","22","34","35","36","MA1","N22"]},{"name":"Cultins Road","code":"36239828","latitude":"55.922248840332","longitude":"-3.30252599716187","service_numbers":["34"]},{"name":"St James Hotel","code":"36242687","latitude":"55.9543266296387","longitude":"-3.18782091140747","service_numbers":["1","4","5","15","19","26","34","44","45"]},{"name":"Omni Centre","code":"36242691","latitude":"55.9554443359375","longitude":"-3.18665409088135","service_numbers":["1","4","10","11","12","15","16","19","22","25","26","34","44","44A","N3","N11","N16","N22","N25","N26","N30","N31","N34","N37","N44"]},{"name":"London Road","code":"36242743","latitude":"55.9573593139648","longitude":"-3.1631031036377","service_numbers":["19","34"]},{"name":"Ocean Terminal","code":"36242954","latitude":"55.9800910949707","longitude":"-3.17752003669739","service_numbers":["21","34","35"]},{"name":"Sighthill Indust","code":"36245346","latitude":"55.9263877868652","longitude":"-3.29847097396851","service_numbers":["20","34"]},{"name":"Bankhead Industr","code":"36245394","latitude":"55.9258460998535","longitude":"-3.302325963974","service_numbers":["20","34"]},{"name":"outside GAP","code":"36246267","latitude":"55.9507484436035","longitude":"-3.20483088493347","service_numbers":["1","4","15","15A","26","X26","34","44","X44","N26","N34","N44"]},{"name":"Hermiston P&R (t","code":"36246365","latitude":"55.9172515869141","longitude":"-3.31443905830383","service_numbers":["25","X25","34","45","N25","N34"]},{"name":"Hermiston P&R (t","code":"36246389","latitude":"55.9170188903809","longitude":"-3.31435108184814","service_numbers":["25","X25","34","45","N25","N34"]},{"name":"Port Hamilton","code":"36246742","latitude":"55.9435729980469","longitude":"-3.208163022995","service_numbers":["1","34","35","N34"]},{"name":"HW Science Park","code":"36246836","latitude":"55.9128799438477","longitude":"-3.32316994667053","service_numbers":["34","45"]},{"name":"Heriot Watt Rese","code":"36246872","latitude":"55.9150733947754","longitude":"-3.32319688796997","service_numbers":["34","45"]},{"name":"HW Science Park","code":"36246945","latitude":"55.9129676818848","longitude":"-3.32334899902344","service_numbers":["34","45"]},{"name":"Heriot Watt Rese","code":"36246974","latitude":"55.9149589538574","longitude":"-3.32290506362915","service_numbers":["34","45"]},{"name":"opp. church","code":"36247864","latitude":"55.9594383239746","longitude":"-3.15481901168823","service_numbers":["19","34"]}];