var Stops = Stops || {};Stops['32'] = [{"name":"Whitehall Court","code":"36232735","latitude":"55.9608154296875","longitude":"-3.25587606430054","service_numbers":["32","42"]},{"name":"Drylaw Avenue","code":"36232736","latitude":"55.9607734680176","longitude":"-3.24930596351624","service_numbers":["32","42"]},{"name":"Craigroyston Com","code":"36232767","latitude":"55.9677734375","longitude":"-3.24934005737305","service_numbers":["24","27","32","37","N37"]},{"name":"Pennywell Road","code":"36232768","latitude":"55.9695281982422","longitude":"-3.25064611434937","service_numbers":["24","27","32","37","N37"]},{"name":"Pennywell Road","code":"36232769","latitude":"55.9714164733887","longitude":"-3.25227689743042","service_numbers":["24","27","32","37","N37"]},{"name":"Pennywell Place","code":"36232782","latitude":"55.9740447998047","longitude":"-3.25367593765259","service_numbers":["14","24","32","47"]},{"name":"Muirhouse shops","code":"36232826","latitude":"55.9722061157227","longitude":"-3.2525269985199","service_numbers":["24","27","32","37"]},{"name":"Muirhouse Avenue","code":"36232827","latitude":"55.9702110290527","longitude":"-3.25082802772522","service_numbers":["24","27","32","37"]},{"name":"Community Centre","code":"36232828","latitude":"55.967643737793","longitude":"-3.24875903129578","service_numbers":["24","27","32","37"]},{"name":"Granton Mains Ea","code":"36232837","latitude":"55.9766159057617","longitude":"-3.24310207366943","service_numbers":["8","14","16","24","X29","32"]},{"name":"Granton Mains Av","code":"36232838","latitude":"55.9764976501465","longitude":"-3.24662399291992","service_numbers":["8","14","16","24","X29","32"]},{"name":"Pennywell Cottag","code":"36232839","latitude":"55.9754180908203","longitude":"-3.25291895866394","service_numbers":["8","14","16","24","29","X29","32"]},{"name":"Gypsy Brae","code":"36232842","latitude":"55.9764099121094","longitude":"-3.24998688697815","service_numbers":["8","14","16","24","X29","32"]},{"name":"Granton Mains Av","code":"36232843","latitude":"55.9766464233398","longitude":"-3.24518704414368","service_numbers":["8","14","16","24","X29","32"]},{"name":"Granton Mains Ea","code":"36232845","latitude":"55.9767837524414","longitude":"-3.24249911308289","service_numbers":["8","14","16","24","X29","32"]},{"name":"Drylaw Avenue","code":"36232859","latitude":"55.9607048034668","longitude":"-3.24826288223267","service_numbers":["32","42"]},{"name":"Forthview Terrac","code":"36232862","latitude":"55.9605712890625","longitude":"-3.25240802764893","service_numbers":["32","42"]},{"name":"Whitehall Court","code":"36232863","latitude":"55.9606590270996","longitude":"-3.25614309310913","service_numbers":["32","42"]},{"name":"Sighthill","code":"36234862","latitude":"55.9235076904297","longitude":"-3.28281903266907","service_numbers":["3","21","25","32","34","35","109","N25","N34"]},{"name":"Sighthill Shops","code":"36234863","latitude":"55.9228439331055","longitude":"-3.28761410713196","service_numbers":["3","21","25","X25","32","34","35","109","N25","N34"]},{"name":"Bankhead Roundab","code":"36234864","latitude":"55.9219093322754","longitude":"-3.29289603233337","service_numbers":["25","X25","32","34","109","N25","N34"]},{"name":"Calder View","code":"36234866","latitude":"55.9208450317383","longitude":"-3.29828596115112","service_numbers":["25","32","34"]},{"name":"Sighthill Cresce","code":"36234894","latitude":"55.919261932373","longitude":"-3.28903198242188","service_numbers":["3","18","21","32"]},{"name":"Calder Gardens","code":"36234928","latitude":"55.9199905395508","longitude":"-3.29004788398743","service_numbers":["3","18","20","21","32"]},{"name":"Meadowplace Road","code":"36235765","latitude":"55.9420280456543","longitude":"-3.29291009902954","service_numbers":["1","12","21","32"]},{"name":"Ladywell","code":"36235767","latitude":"55.9409103393555","longitude":"-3.29239201545715","service_numbers":["1","12","21","32"]},{"name":"Pennywell Cottag","code":"36236784","latitude":"55.9755630493164","longitude":"-3.2528600692749","service_numbers":["8","14","16","24","32"]},{"name":"Broomhall","code":"36236785","latitude":"55.9384460449219","longitude":"-3.29271101951599","service_numbers":["12","21","32"]},{"name":"Broomhall","code":"36236786","latitude":"55.9376373291016","longitude":"-3.29169106483459","service_numbers":["12","21","32"]},{"name":"Wester Broom","code":"36236787","latitude":"55.9356651306152","longitude":"-3.28976798057556","service_numbers":["12","21","32"]},{"name":"Wester Broom","code":"36236789","latitude":"55.9363899230957","longitude":"-3.29068899154663","service_numbers":["12","21","32"]},{"name":"Forester Park Av","code":"36236792","latitude":"55.9331932067871","longitude":"-3.28789401054382","service_numbers":["12","21","32"]},{"name":"Forester Pk Ave","code":"36236793","latitude":"55.9326095581055","longitude":"-3.28716993331909","service_numbers":["12","21","32"]},{"name":"Broomhouse Drive","code":"36236823","latitude":"55.9284858703613","longitude":"-3.28440809249878","service_numbers":["21","32"]},{"name":"Broomhouse Drive","code":"36236824","latitude":"55.9285888671875","longitude":"-3.28476405143738","service_numbers":["21","32"]},{"name":"New Lairdship Ya","code":"36236825","latitude":"55.9262542724609","longitude":"-3.28318190574646","service_numbers":["21","32"]},{"name":"New Lairdship Pl","code":"36236826","latitude":"55.9249801635742","longitude":"-3.2820041179657","service_numbers":["21","32"]},{"name":"Broomhouse R/Abo","code":"36236827","latitude":"55.9295043945312","longitude":"-3.28668308258057","service_numbers":["2","12","21","22","32","N22"]},{"name":"Bankhead","code":"36236828","latitude":"55.9290390014648","longitude":"-3.28993201255798","service_numbers":["2","12","21","22","32","N22"]},{"name":"Bank HQ","code":"36236864","latitude":"55.9279975891113","longitude":"-3.29249095916748","service_numbers":["18","32","35"]},{"name":"Stevenson Colleg","code":"36236865","latitude":"55.9276962280273","longitude":"-3.2921290397644","service_numbers":["18","32","35"]},{"name":"Bankhead Avenue","code":"36236867","latitude":"55.9249496459961","longitude":"-3.29270911216736","service_numbers":["18","20","32","34","35"]},{"name":"Bankhead Avenue","code":"36236868","latitude":"55.9247016906738","longitude":"-3.29234910011292","service_numbers":["18","20","32","35"]},{"name":"Sime Malloch","code":"36236869","latitude":"55.9268798828125","longitude":"-3.29366993904114","service_numbers":["18","20","32","34","35"]},{"name":"Bankhead Medway","code":"36236872","latitude":"55.9261856079102","longitude":"-3.29316711425781","service_numbers":["18","20","32","35"]},{"name":"Bankhead Loan","code":"36236873","latitude":"55.9231986999512","longitude":"-3.29156303405762","service_numbers":["18","20","32","35"]},{"name":"Calder Road","code":"36236874","latitude":"55.9229125976562","longitude":"-3.29168105125427","service_numbers":["18","20","32","34","35"]},{"name":"Napier Universit","code":"36236876","latitude":"55.9227561950684","longitude":"-3.29009199142456","service_numbers":["3","21","25","X25","32","34","35","109","N25","N34"]},{"name":"Sighthill","code":"36236878","latitude":"55.9233894348145","longitude":"-3.28540802001953","service_numbers":["3","21","25","X25","32","34","35","109","N25","N34"]},{"name":"Granton Square","code":"36237257","latitude":"55.9806594848633","longitude":"-3.2240149974823","service_numbers":["19","24","32"]},{"name":"Murrayburn Park","code":"36237453","latitude":"55.917652130127","longitude":"-3.28160190582275","service_numbers":["3","18","20","21","30","32","33"]},{"name":"Murrayburn Place","code":"36237459","latitude":"55.9175186157227","longitude":"-3.28236508369446","service_numbers":["3","18","20","21","30","32","33","N30"]},{"name":"Harvesters Way","code":"36237469","latitude":"55.9119911193848","longitude":"-3.27728700637817","service_numbers":["3","18","20","21","30","32"]},{"name":"Clovenstone Road","code":"36237472","latitude":"55.9125137329102","longitude":"-3.27711200714111","service_numbers":["18","20","21","32"]},{"name":"Westside Plaza","code":"36237479","latitude":"55.9164047241211","longitude":"-3.28584909439087","service_numbers":["3","18","20","21","32"]},{"name":"Duart Crescent","code":"36237578","latitude":"55.9526519775391","longitude":"-3.29691600799561","service_numbers":["1","21","26","32"]},{"name":"Duart Crescent","code":"36237579","latitude":"55.9532051086426","longitude":"-3.29735088348389","service_numbers":["1","21","26","32","N26"]},{"name":"Craigmount Avenu","code":"36237582","latitude":"55.9575996398926","longitude":"-3.29972410202026","service_numbers":["32"]},{"name":"Parkgrove Drive","code":"36237583","latitude":"55.9588470458984","longitude":"-3.30019807815552","service_numbers":["32"]},{"name":"Craigmount Ave N","code":"36237584","latitude":"55.9573364257812","longitude":"-3.2993791103363","service_numbers":["32"]},{"name":"Templeland Road","code":"36237593","latitude":"55.9450073242188","longitude":"-3.29408192634583","service_numbers":["1","21","26","32","N26"]},{"name":"Templeland Road","code":"36237594","latitude":"55.9453506469727","longitude":"-3.29398202896118","service_numbers":["1","21","26","32"]},{"name":"Pearce Road","code":"36237595","latitude":"55.9472503662109","longitude":"-3.294508934021","service_numbers":["1","21","26","32","N26"]},{"name":"Drum Brae Garden","code":"36237596","latitude":"55.9486999511719","longitude":"-3.29506993293762","service_numbers":["1","21","26","32","N26"]},{"name":"Drum Brae Garden","code":"36237597","latitude":"55.9487571716309","longitude":"-3.29492807388306","service_numbers":["1","21","26","32"]},{"name":"Drum Brae Park","code":"36237598","latitude":"55.9497299194336","longitude":"-3.2954089641571","service_numbers":["1","21","26","32"]},{"name":"Drum Brae Avenue","code":"36237623","latitude":"55.9515533447266","longitude":"-3.2964940071106","service_numbers":["1","21","26","32","N26"]},{"name":"Broomhouse Road","code":"36237972","latitude":"55.9293365478516","longitude":"-3.28718900680542","service_numbers":["2","12","21","22","32","N22"]},{"name":"Wester Hailes Pa","code":"36238293","latitude":"55.9142646789551","longitude":"-3.27651405334473","service_numbers":["3","18","20","21","32"]},{"name":"Wester Drylaw Ro","code":"36238479","latitude":"55.9612770080566","longitude":"-3.24751210212708","service_numbers":["24","32","42"]},{"name":"Drylaw Church","code":"36238482","latitude":"55.9656448364258","longitude":"-3.24999189376831","service_numbers":["24","32","42"]},{"name":"Drylaw School","code":"36238483","latitude":"55.9624481201172","longitude":"-3.2479989528656","service_numbers":["24","32","42"]},{"name":"Drylaw School","code":"36238484","latitude":"55.9637413024902","longitude":"-3.24909806251526","service_numbers":["24","32","42"]},{"name":"Drylaw Parish ch","code":"36238485","latitude":"55.9649505615234","longitude":"-3.24940896034241","service_numbers":["24","32","42"]},{"name":"Craigcrook Road","code":"36238497","latitude":"55.9623222351074","longitude":"-3.27007007598877","service_numbers":["32"]},{"name":"Corbiehill Road","code":"36238498","latitude":"55.9618492126465","longitude":"-3.26531195640564","service_numbers":["32"]},{"name":"Hill Park","code":"36238523","latitude":"55.9621200561523","longitude":"-3.26785206794739","service_numbers":["32"]},{"name":"Blackhall Centre","code":"36238524","latitude":"55.9616661071777","longitude":"-3.26301598548889","service_numbers":["32","41"]},{"name":"Quality Street","code":"36238525","latitude":"55.9624938964844","longitude":"-3.26999497413635","service_numbers":["32"]},{"name":"Hill Park","code":"36238526","latitude":"55.962158203125","longitude":"-3.26676392555237","service_numbers":["32"]},{"name":"Blackhall","code":"36238527","latitude":"55.9613723754883","longitude":"-3.26194906234741","service_numbers":["32","41"]},{"name":"West Pilton Cres","code":"36238658","latitude":"55.973316192627","longitude":"-3.25293207168579","service_numbers":["24","27","32"]},{"name":"Clermiston Road","code":"36238694","latitude":"55.9626159667969","longitude":"-3.27555799484253","service_numbers":["21","32","41"]},{"name":"Clermiston Drive","code":"36238695","latitude":"55.9619026184082","longitude":"-3.28368902206421","service_numbers":["32","41"]},{"name":"Parkgrove Street","code":"36238696","latitude":"55.9610977172852","longitude":"-3.29040598869324","service_numbers":["32","41"]},{"name":"Parkgrove Road","code":"36238697","latitude":"55.960620880127","longitude":"-3.29445910453796","service_numbers":["32","41"]},{"name":"Drum Bae North","code":"36238723","latitude":"55.9603118896484","longitude":"-3.30000710487366","service_numbers":["32","41"]},{"name":"Clermiston Road","code":"36238726","latitude":"55.9627571105957","longitude":"-3.27580308914185","service_numbers":["21","32","41"]},{"name":"Clermiston Drive","code":"36238727","latitude":"55.9620361328125","longitude":"-3.28367710113525","service_numbers":["32","41"]},{"name":"Parkgrove Road","code":"36238728","latitude":"55.9607353210449","longitude":"-3.29481506347656","service_numbers":["32","41"]},{"name":"Drum Brae South","code":"36238729","latitude":"55.9604263305664","longitude":"-3.2994019985199","service_numbers":["32","41"]},{"name":"Parkgrove Street","code":"36238734","latitude":"55.9612808227539","longitude":"-3.29007601737976","service_numbers":["32","41"]},{"name":"Royston Mains Ro","code":"36238796","latitude":"55.9784660339355","longitude":"-3.23312902450562","service_numbers":["8","16","32"]},{"name":"Royston Mains St","code":"36238797","latitude":"55.9778709411621","longitude":"-3.23615503311157","service_numbers":["8","16","32"]},{"name":"Caroline Park Gr","code":"36238798","latitude":"55.9773368835449","longitude":"-3.23850989341736","service_numbers":["8","16","32"]},{"name":"Granton Park Ave","code":"36238923","latitude":"55.9806709289551","longitude":"-3.22940111160278","service_numbers":["16","19","32"]},{"name":"Granton View","code":"36238924","latitude":"55.980541229248","longitude":"-3.2259509563446","service_numbers":["16","19","32"]},{"name":"Royston Mains Ro","code":"36238925","latitude":"55.9785957336426","longitude":"-3.23279690742493","service_numbers":["8","16","32"]},{"name":"Royston Mains St","code":"36238926","latitude":"55.9781074523926","longitude":"-3.23581004142761","service_numbers":["8","16","32"]},{"name":"Caroline Park Gr","code":"36238927","latitude":"55.9776573181152","longitude":"-3.2376389503479","service_numbers":["8","16","32"]},{"name":"Granton Park Ave","code":"36238928","latitude":"55.9799194335938","longitude":"-3.23078799247742","service_numbers":["16","19","32"]},{"name":"Gylemuir Road","code":"36242835","latitude":"55.9420166015625","longitude":"-3.29310202598572","service_numbers":["1","12","21","32"]},{"name":"Hailesland Place","code":"36245293","latitude":"55.9167976379395","longitude":"-3.27899694442749","service_numbers":["3","18","20","21","32","N30"]},{"name":"Hailesland Place","code":"36245297","latitude":"55.9168891906738","longitude":"-3.27884006500244","service_numbers":["3","18","20","21","32"]},{"name":"Westside Plaza","code":"36247454","latitude":"55.9165000915527","longitude":"-3.2859320640564","service_numbers":["3","18","20","21","32"]},{"name":"Wester Hailes Pa","code":"36248678","latitude":"55.9140815734863","longitude":"-3.2768280506134","service_numbers":["3","18","20","21","32","N30"]}];