var Stops = Stops || {};Stops['35'] = [{"name":"A8 Interchange","code":"36232423","latitude":"55.9386329650879","longitude":"-3.35866189002991","service_numbers":["35","N22"]},{"name":"Glasgow Road","code":"36232424","latitude":"55.9392623901367","longitude":"-3.35879588127136","service_numbers":["35","N22"]},{"name":"Airport Hotel","code":"36232425","latitude":"55.943546295166","longitude":"-3.36131596565247","service_numbers":["35","100","N22"]},{"name":"Airport Hotel","code":"36232427","latitude":"55.9430694580078","longitude":"-3.36064291000366","service_numbers":["35","100","N22"]},{"name":"A8 at RBS Gogar","code":"36232428","latitude":"55.9365310668945","longitude":"-3.33825707435608","service_numbers":["12","X12","35","N22"]},{"name":"A8 at RBS Gogar","code":"36232429","latitude":"55.9383010864258","longitude":"-3.32988095283508","service_numbers":["12","X12","35","N22"]},{"name":"Fountainbridge","code":"36232562","latitude":"55.9453964233398","longitude":"-3.20519304275513","service_numbers":["10","11","15","15A","16","24","35","47","N16"]},{"name":"Abbeymount","code":"36232584","latitude":"55.9558296203613","longitude":"-3.17183399200439","service_numbers":["35","MA1"]},{"name":"Abbeyhill","code":"36232585","latitude":"55.953987121582","longitude":"-3.17368388175964","service_numbers":["35","MA1"]},{"name":"Longstone Road","code":"36232589","latitude":"55.9269027709961","longitude":"-3.26889491081238","service_numbers":["3","25","30","33","35","N25","N30"]},{"name":"Saughton Prison","code":"36232592","latitude":"55.929630279541","longitude":"-3.2607090473175","service_numbers":["3","25","30","33","35","N25","N30"]},{"name":"Stenhouse","code":"36232593","latitude":"55.9299125671387","longitude":"-3.25748491287231","service_numbers":["3","25","30","33","35","N25","N30"]},{"name":"Stenhouse Mill","code":"36232594","latitude":"55.9297523498535","longitude":"-3.25751209259033","service_numbers":["3","25","30","33","35","N25","N30"]},{"name":"Saughton Prison","code":"36232595","latitude":"55.929744720459","longitude":"-3.2610330581665","service_numbers":["3","25","30","33","35","N25","N30"]},{"name":"Chesser Avenue","code":"36232685","latitude":"55.9307403564453","longitude":"-3.25386190414429","service_numbers":["3","25","30","33","35","N25","N30"]},{"name":"Saughton Mains","code":"36232686","latitude":"55.9283218383789","longitude":"-3.26538801193237","service_numbers":["3","25","30","33","35","N25","N30"]},{"name":"London Road","code":"36232892","latitude":"55.958251953125","longitude":"-3.17208290100098","service_numbers":["1","35"]},{"name":"Brunswick Road","code":"36232893","latitude":"55.9612274169922","longitude":"-3.17121195793152","service_numbers":["1","35"]},{"name":"Albert Street","code":"36232894","latitude":"55.9629325866699","longitude":"-3.17110300064087","service_numbers":["1","35"]},{"name":"Dalmeny Street","code":"36232895","latitude":"55.9641952514648","longitude":"-3.17066097259521","service_numbers":["1","35"]},{"name":"Easter Road","code":"36232896","latitude":"55.966178894043","longitude":"-3.17023992538452","service_numbers":["1","35"]},{"name":"Academy Park","code":"36232897","latitude":"55.9680786132812","longitude":"-3.16864705085754","service_numbers":["1","35"]},{"name":"Sandport Street","code":"36232969","latitude":"55.9765434265137","longitude":"-3.17066502571106","service_numbers":["16","22","35","36","N22"]},{"name":"Sandport Street","code":"36232972","latitude":"55.9768486022949","longitude":"-3.17266201972961","service_numbers":["16","22","35","36","N22"]},{"name":"Victoria Quay","code":"36232973","latitude":"55.9771919250488","longitude":"-3.17435503005981","service_numbers":["16","22","35","36","N22"]},{"name":"Victoria Quay","code":"36232974","latitude":"55.9773826599121","longitude":"-3.1757550239563","service_numbers":["16","22","35","36","N22"]},{"name":"Commercial St","code":"36232975","latitude":"55.978084564209","longitude":"-3.17947793006897","service_numbers":["16","22","35","36","N22"]},{"name":"Academy Park","code":"36234249","latitude":"55.9680366516113","longitude":"-3.16835808753967","service_numbers":["1","35"]},{"name":"St Clair Street","code":"36234252","latitude":"55.9662704467773","longitude":"-3.16976189613342","service_numbers":["1","35"]},{"name":"St Clair Street","code":"36234253","latitude":"55.9641075134277","longitude":"-3.17049789428711","service_numbers":["1","35"]},{"name":"South Bridge","code":"36234756","latitude":"55.9490432739258","longitude":"-3.18681001663208","service_numbers":["3","5","8","14","29","X29","30","33","35","45","49","N3","N30"]},{"name":"Parkhead Terrace","code":"36234858","latitude":"55.9259948730469","longitude":"-3.2716178894043","service_numbers":["3","25","34","35","109","N25","N34"]},{"name":"St Josephs Prima","code":"36234859","latitude":"55.9247741699219","longitude":"-3.27663493156433","service_numbers":["3","25","34","35","109","N25","N34"]},{"name":"Sighthill","code":"36234862","latitude":"55.9235076904297","longitude":"-3.28281903266907","service_numbers":["3","21","25","32","34","35","109","N25","N34"]},{"name":"Sighthill Shops","code":"36234863","latitude":"55.9228439331055","longitude":"-3.28761410713196","service_numbers":["3","21","25","X25","32","34","35","109","N25","N34"]},{"name":"Duncan Place","code":"36235642","latitude":"55.9691009521484","longitude":"-3.16803693771362","service_numbers":["2","12","21","22","25","X25","X31","34","35","42","49"]},{"name":"Academy Street","code":"36235643","latitude":"55.9699859619141","longitude":"-3.16953802108765","service_numbers":["12","21","25","34","35","42","49"]},{"name":"Academy Street","code":"36235645","latitude":"55.9701309204102","longitude":"-3.17019891738892","service_numbers":["12","21","25","34","35","49"]},{"name":"Semple Street","code":"36236392","latitude":"55.9449195861816","longitude":"-3.20649099349976","service_numbers":["1","2","34","35","N34"]},{"name":"West Port","code":"36236436","latitude":"55.9459915161133","longitude":"-3.20135188102722","service_numbers":["2","35"]},{"name":"Forrest Road","code":"36236456","latitude":"55.9462432861328","longitude":"-3.19112801551819","service_numbers":["2","23","27","35","47","41","42","45","67"]},{"name":"High Riggs","code":"36236459","latitude":"55.9444007873535","longitude":"-3.20234394073486","service_numbers":["23","27","35","47","45"]},{"name":"Chalmers Street","code":"36236462","latitude":"55.944881439209","longitude":"-3.19842004776001","service_numbers":["23","27","35","47","45","CS1","WHT"]},{"name":"Keir Street","code":"36236463","latitude":"55.9449882507324","longitude":"-3.19659805297852","service_numbers":["23","27","35","47","45"]},{"name":"Lauriston Terrac","code":"36236464","latitude":"55.94482421875","longitude":"-3.19489502906799","service_numbers":["23","27","35","47","45","CS1","WHT"]},{"name":"Middle Meadow Wa","code":"36236465","latitude":"55.9452095031738","longitude":"-3.19226503372192","service_numbers":["23","27","35","47","45","CS1","WHT"]},{"name":"East Fountainbri","code":"36236467","latitude":"55.945182800293","longitude":"-3.20403409004211","service_numbers":["2","35"]},{"name":"Port Hamilton","code":"36236485","latitude":"55.9434394836426","longitude":"-3.20804595947266","service_numbers":["1","34","35","N34"]},{"name":"Gilmore Park","code":"36236486","latitude":"55.9424247741699","longitude":"-3.21243405342102","service_numbers":["1","34","35","N34"]},{"name":"Grove Street","code":"36236487","latitude":"55.9430351257324","longitude":"-3.21059608459473","service_numbers":["1","34","35","N34"]},{"name":"Fountainpark","code":"36236489","latitude":"55.9412422180176","longitude":"-3.21585488319397","service_numbers":["1","34","35","N34"]},{"name":"Fountainpark","code":"36236492","latitude":"55.9407958984375","longitude":"-3.21721792221069","service_numbers":["1","34","35","N34"]},{"name":"Dundee Terrace","code":"36236493","latitude":"55.9401512145996","longitude":"-3.21897506713867","service_numbers":["1","34","35","N34"]},{"name":"Dundee Terrace","code":"36236494","latitude":"55.9399108886719","longitude":"-3.22127294540405","service_numbers":["1","34","35","N34"]},{"name":"Viewforth","code":"36236495","latitude":"55.9419631958008","longitude":"-3.21442103385925","service_numbers":["1","34","35","N34"]},{"name":"Angle Park Terra","code":"36236496","latitude":"55.9386787414551","longitude":"-3.22397208213806","service_numbers":["34","35","N34"]},{"name":"Angle Park Terra","code":"36236497","latitude":"55.9378929138184","longitude":"-3.22529196739197","service_numbers":["34","35","N34"]},{"name":"St Michaels","code":"36236498","latitude":"55.9367828369141","longitude":"-3.22756195068359","service_numbers":["4","34","35","44","44A","N34","N44"]},{"name":"Laurel Terrace","code":"36236523","latitude":"55.9366722106934","longitude":"-3.22815108299255","service_numbers":["4","34","35","44","N34","N44"]},{"name":"Caledonian Brewe","code":"36236524","latitude":"55.9354476928711","longitude":"-3.23096203804016","service_numbers":["4","34","35","44","X44","N34","N44"]},{"name":"Shandon","code":"36236525","latitude":"55.9350547790527","longitude":"-3.23144602775574","service_numbers":["4","34","35","44","44A","X44","N34","N44"]},{"name":"Hermand Street","code":"36236526","latitude":"55.933650970459","longitude":"-3.23441100120544","service_numbers":["4","34","35","44","44A","N34","N44"]},{"name":"Moat Drive","code":"36236527","latitude":"55.9324607849121","longitude":"-3.23677396774292","service_numbers":["4","34","35","44","N34","N44"]},{"name":"Moat Drive","code":"36236528","latitude":"55.930736541748","longitude":"-3.23848009109497","service_numbers":["4","34","35","44","44A","N34","N44"]},{"name":"Hutchison Grove","code":"36236529","latitude":"55.930004119873","longitude":"-3.23973703384399","service_numbers":["4","34","35","44","N34","N44"]},{"name":"Hutchison Cottag","code":"36236532","latitude":"55.9294624328613","longitude":"-3.24004006385803","service_numbers":["4","34","35","44","44A","N34","N44"]},{"name":"Slateford Statio","code":"36236535","latitude":"55.9272232055664","longitude":"-3.24297690391541","service_numbers":["4","34","35","44","44A","X44","N34","N44"]},{"name":"Slateford Statio","code":"36236536","latitude":"55.9272804260254","longitude":"-3.24328303337097","service_numbers":["4","34","35","44","X44","N34","N44"]},{"name":"Hutchison Place","code":"36236537","latitude":"55.9284133911133","longitude":"-3.24157500267029","service_numbers":["4","34","35","44","N34","N44"]},{"name":"Gogarstone","code":"36236597","latitude":"55.9366493225098","longitude":"-3.35198092460632","service_numbers":["12","X12","35","N22"]},{"name":"Gogarstone","code":"36236598","latitude":"55.9369277954102","longitude":"-3.35058188438416","service_numbers":["12","X12","35","N22"]},{"name":"Calder Road","code":"36236752","latitude":"55.9257545471191","longitude":"-3.2688889503479","service_numbers":["25","30","33","34","35","38","109","N30","N34"]},{"name":"Abbeyhill Cresce","code":"36236758","latitude":"55.9539756774902","longitude":"-3.17398810386658","service_numbers":["35","CS1"]},{"name":"Holyrood","code":"36236759","latitude":"55.9521713256836","longitude":"-3.17649602890015","service_numbers":["35","ET1","MA1"]},{"name":"Huntly House Mus","code":"36236762","latitude":"55.9514503479004","longitude":"-3.17969298362732","service_numbers":["35","ET1","MA1"]},{"name":"Moray House","code":"36236763","latitude":"55.9508361816406","longitude":"-3.18271708488464","service_numbers":["35","ET1","MA1"]},{"name":"Scottish Parliam","code":"36236764","latitude":"55.952522277832","longitude":"-3.1756739616394","service_numbers":["35","CS1"]},{"name":"Huntly House Mus","code":"36236765","latitude":"55.95166015625","longitude":"-3.17909097671509","service_numbers":["35","CS1"]},{"name":"Old Assembly Clo","code":"36236767","latitude":"55.951114654541","longitude":"-3.18171691894531","service_numbers":["35","CS1"]},{"name":"Gyle Access","code":"36236829","latitude":"55.9319839477539","longitude":"-3.29350399971008","service_numbers":["2","12","18","21","22","35","N22"]},{"name":"South Gyle Cresc","code":"36236832","latitude":"55.9314002990723","longitude":"-3.29524493217468","service_numbers":["2","18","22","35"]},{"name":"South Gyle Cresc","code":"36236834","latitude":"55.9301071166992","longitude":"-3.29934811592102","service_numbers":["2","18","22","35"]},{"name":"South Gyle Cresc","code":"36236835","latitude":"55.9297904968262","longitude":"-3.30208992958069","service_numbers":["2","18","22","35"]},{"name":"South Gyle Cresc","code":"36236836","latitude":"55.9311218261719","longitude":"-3.30549597740173","service_numbers":["2","18","22","35"]},{"name":"South Gyle Cresc","code":"36236837","latitude":"55.9322357177734","longitude":"-3.30631804466248","service_numbers":["2","18","22","35"]},{"name":"Redheughs Ave","code":"36236838","latitude":"55.9329223632812","longitude":"-3.3068380355835","service_numbers":["2","18","22","35"]},{"name":"Lochside Cresc","code":"36236843","latitude":"55.933219909668","longitude":"-3.31345891952515","service_numbers":["2","12","18","20","21","22","35","N22"]},{"name":"Bookers","code":"36236848","latitude":"55.9312362670898","longitude":"-3.30564403533936","service_numbers":["2","18","22","35"]},{"name":"ICL Service Cent","code":"36236849","latitude":"55.9297142028809","longitude":"-3.30256795883179","service_numbers":["2","18","22","35"]},{"name":"Alexanders","code":"36236852","latitude":"55.9300537109375","longitude":"-3.29955410957336","service_numbers":["2","18","22","35"]},{"name":"GEC Marconi","code":"36236853","latitude":"55.9306259155273","longitude":"-3.29622793197632","service_numbers":["2","18","22","35"]},{"name":"St Aug Fields","code":"36236863","latitude":"55.9311485290527","longitude":"-3.29270792007446","service_numbers":["2","12","18","21","22","35","N22"]},{"name":"Bank HQ","code":"36236864","latitude":"55.9279975891113","longitude":"-3.29249095916748","service_numbers":["18","32","35"]},{"name":"Stevenson Colleg","code":"36236865","latitude":"55.9276962280273","longitude":"-3.2921290397644","service_numbers":["18","32","35"]},{"name":"Bankhead Avenue","code":"36236867","latitude":"55.9249496459961","longitude":"-3.29270911216736","service_numbers":["18","20","32","34","35"]},{"name":"Bankhead Avenue","code":"36236868","latitude":"55.9247016906738","longitude":"-3.29234910011292","service_numbers":["18","20","32","35"]},{"name":"Sime Malloch","code":"36236869","latitude":"55.9268798828125","longitude":"-3.29366993904114","service_numbers":["18","20","32","34","35"]},{"name":"Bankhead Medway","code":"36236872","latitude":"55.9261856079102","longitude":"-3.29316711425781","service_numbers":["18","20","32","35"]},{"name":"Bankhead Loan","code":"36236873","latitude":"55.9231986999512","longitude":"-3.29156303405762","service_numbers":["18","20","32","35"]},{"name":"Calder Road","code":"36236874","latitude":"55.9229125976562","longitude":"-3.29168105125427","service_numbers":["18","20","32","34","35"]},{"name":"Napier Universit","code":"36236876","latitude":"55.9227561950684","longitude":"-3.29009199142456","service_numbers":["3","21","25","X25","32","34","35","109","N25","N34"]},{"name":"Sighthill","code":"36236878","latitude":"55.9233894348145","longitude":"-3.28540802001953","service_numbers":["3","21","25","X25","32","34","35","109","N25","N34"]},{"name":"Broomhouse","code":"36236879","latitude":"55.9243965148926","longitude":"-3.27947211265564","service_numbers":["3","25","34","35","109","N25","N34"]},{"name":"St Josephs Schoo","code":"36236892","latitude":"55.9251556396484","longitude":"-3.27618408203125","service_numbers":["3","25","34","35","109","N25","N34"]},{"name":"Kirkgate Centre","code":"36237343","latitude":"55.9711494445801","longitude":"-3.17288994789124","service_numbers":["7","10","14","21","22","34","35","N22"]},{"name":"Kirkgate Centre","code":"36237345","latitude":"55.9712905883789","longitude":"-3.17292594909668","service_numbers":["7","10","14","21","22","34","35","N22"]},{"name":"Abbeymount","code":"36237652","latitude":"55.9568519592285","longitude":"-3.17281007766724","service_numbers":["35"]},{"name":"Gogar Roundabout","code":"36237985","latitude":"55.9388122558594","longitude":"-3.32567095756531","service_numbers":["12","35","N22"]},{"name":"St Margarets Chu","code":"36238387","latitude":"55.9605941772461","longitude":"-3.17151308059692","service_numbers":["1","35"]},{"name":"Montgomery Stree","code":"36238389","latitude":"55.9587059020996","longitude":"-3.17177700996399","service_numbers":["1","35"]},{"name":"Royal Mile","code":"36238495","latitude":"55.9503936767578","longitude":"-3.18561792373657","service_numbers":["35"]},{"name":"Chalmers Close","code":"36238496","latitude":"55.9505729675293","longitude":"-3.18578410148621","service_numbers":["35","CS1"]},{"name":"The Shore","code":"36238749","latitude":"55.9750785827637","longitude":"-3.17137408256531","service_numbers":["22","35","36","N22"]},{"name":"Broad Wynd","code":"36238752","latitude":"55.9760551452637","longitude":"-3.17008900642395","service_numbers":["22","35","36","N22"]},{"name":"Gogar Roundabout","code":"36238935","latitude":"55.9389801025391","longitude":"-3.32679796218872","service_numbers":["12","35","N22"]},{"name":"Holiday Inn","code":"36239392","latitude":"55.9788665771484","longitude":"-3.18023896217346","service_numbers":["11","22","34","35","36","N22"]},{"name":"Holiday Inn","code":"36239397","latitude":"55.9786834716797","longitude":"-3.17983293533325","service_numbers":["11","21","22","34","35","36","MA1","N22"]},{"name":"National Museum","code":"36239432","latitude":"55.9472007751465","longitude":"-3.19064497947693","service_numbers":["35","45"]},{"name":"Saughton Mains A","code":"36239469","latitude":"55.9285545349121","longitude":"-3.26565194129944","service_numbers":["3","25","30","33","35","N25","N30"]},{"name":"Chesser Ave Brid","code":"36239479","latitude":"55.9291038513184","longitude":"-3.24867105484009","service_numbers":["35"]},{"name":"Commercial St","code":"36239695","latitude":"55.9779434204102","longitude":"-3.17910504341125","service_numbers":["16","22","35","36","N22"]},{"name":"Gyle Centre","code":"36242432","latitude":"55.9379386901855","longitude":"-3.3150749206543","service_numbers":["12","35"]},{"name":"Gyle Centre","code":"36242476","latitude":"55.9380378723145","longitude":"-3.31493401527405","service_numbers":["2","12","18","21","22","35"]},{"name":"Parliament Stree","code":"36242482","latitude":"55.9739265441895","longitude":"-3.17278099060059","service_numbers":["22","35","36","N22"]},{"name":"Gyle Centre","code":"36242485","latitude":"55.9380836486816","longitude":"-3.31423211097717","service_numbers":["12","18","20","21","22","33","35"]},{"name":"St Anthony St","code":"36242524","latitude":"55.9720191955566","longitude":"-3.17304396629333","service_numbers":["22","35","36","N22"]},{"name":"Parliament St","code":"36242528","latitude":"55.9745674133301","longitude":"-3.17219209671021","service_numbers":["22","35","36","N22"]},{"name":"Ocean Terminal","code":"36242954","latitude":"55.9800910949707","longitude":"-3.17752003669739","service_numbers":["21","34","35"]},{"name":"South Bridge","code":"36243274","latitude":"55.9491233825684","longitude":"-3.18718099594116","service_numbers":["5","7","8","14","35","45","49","CS1"]},{"name":"Redheughs Avenue","code":"36243989","latitude":"55.9331436157227","longitude":"-3.30879807472229","service_numbers":["2","12","18","21","22","35","N22"]},{"name":"Redheughs Avenue","code":"36245242","latitude":"55.9332504272461","longitude":"-3.30915403366089","service_numbers":["2","12","18","21","22","35","N22"]},{"name":"St Anthonys","code":"36245282","latitude":"55.9719009399414","longitude":"-3.17289710044861","service_numbers":["22","35","36","N22"]},{"name":"Montrose Terrace","code":"36245847","latitude":"55.9571266174316","longitude":"-3.17246603965759","service_numbers":["35","MA1"]},{"name":"RBS HQ to Edinbu","code":"36246582","latitude":"55.9355163574219","longitude":"-3.33215498924255","service_numbers":["X12","35"]},{"name":"Port Hamilton","code":"36246742","latitude":"55.9435729980469","longitude":"-3.208163022995","service_numbers":["1","34","35","N34"]},{"name":"Sheriff Court","code":"36247262","latitude":"55.947437286377","longitude":"-3.19047594070435","service_numbers":["35","45","CS1"]},{"name":"ASDA store","code":"36247383","latitude":"55.9273529052734","longitude":"-3.24693393707275","service_numbers":["20","X25","35"]},{"name":"Chesser Gdns","code":"36247435","latitude":"55.9304237365723","longitude":"-3.25159502029419","service_numbers":["35"]},{"name":"Redheughs Avenue","code":"36247457","latitude":"55.9332847595215","longitude":"-3.31418108940125","service_numbers":["2","12","18","20","21","22","35","N22"]},{"name":"Edinburgh Park","code":"36247694","latitude":"55.9349746704102","longitude":"-3.31596708297729","service_numbers":["2","12","18","20","21","22","35","N22"]},{"name":"RBS HQ from Edin","code":"36248482","latitude":"55.9355163574219","longitude":"-3.33242702484131","service_numbers":["X12","31","35"]},{"name":"Ingliston Park &","code":"36248497","latitude":"55.9391021728516","longitude":"-3.35613298416138","service_numbers":["12","X12","35"]},{"name":"Asda store","code":"36248537","latitude":"55.927074432373","longitude":"-3.24684500694275","service_numbers":["35"]},{"name":"Chesser Bridge","code":"36248565","latitude":"55.9289245605469","longitude":"-3.24866604804993","service_numbers":["35"]},{"name":"Chesser Grove","code":"36248587","latitude":"55.9302864074707","longitude":"-3.25174999237061","service_numbers":["35"]},{"name":"Lochside Crescen","code":"36248728","latitude":"55.9346313476562","longitude":"-3.31616401672363","service_numbers":["2","12","18","20","21","22","35","N22"]},{"name":"Edinburgh Airpor","code":"36253272","latitude":"55.9480400085449","longitude":"-3.36467599868774","service_numbers":["35"]},{"name":"Bankhead Drive","code":"36253274","latitude":"55.929557800293","longitude":"-3.29180598258972","service_numbers":["2","12","18","21","22","35","N22"]},{"name":"Bankhead Drive","code":"36253275","latitude":"55.9298362731934","longitude":"-3.29175209999084","service_numbers":["2","12","18","21","22","35","N22"]},{"name":"Ingliston P&R","code":"36253542","latitude":"55.9391212463379","longitude":"-3.35594201087952","service_numbers":["35"]}];