var Stops = Stops || {};Stops['15'] = [{"name":"St Cuthbert's Ch","code":"36232548","latitude":"55.9493637084961","longitude":"-3.20667695999146","service_numbers":["10","11","15","15A","16","24","47","CS1","N16"]},{"name":"Usher Hall","code":"36232549","latitude":"55.947151184082","longitude":"-3.20582389831543","service_numbers":["1","10","11","15","15A","16","24","34","47","N16","N34"]},{"name":"Fountainbridge","code":"36232562","latitude":"55.9453964233398","longitude":"-3.20519304275513","service_numbers":["10","11","15","15A","16","24","35","47","N16"]},{"name":"Tollcross","code":"36232564","latitude":"55.9426460266113","longitude":"-3.20345902442932","service_numbers":["11","15","15A","16","23","N16"]},{"name":"Leven Street","code":"36232565","latitude":"55.9413642883301","longitude":"-3.20340299606323","service_numbers":["11","15","15A","16","23","45","N16"]},{"name":"Whitehouse Loan","code":"36232567","latitude":"55.9389495849609","longitude":"-3.20478510856628","service_numbers":["11","15","15A","16","23","45","N16"]},{"name":"Holy Corner","code":"36232568","latitude":"55.9350433349609","longitude":"-3.21005797386169","service_numbers":["11","15","15A","16","23","45","N16"]},{"name":"Churchhill","code":"36232569","latitude":"55.9316940307617","longitude":"-3.20992207527161","service_numbers":["5","11","15","15A","16","23","N16"]},{"name":"Morningside Stat","code":"36232573","latitude":"55.9260215759277","longitude":"-3.209233045578","service_numbers":["5","11","15","15A","16","23","N16"]},{"name":"Elm Row","code":"36232574","latitude":"55.9588508605957","longitude":"-3.18376302719116","service_numbers":["10","11","12","15","16","22","25","29","31","37","N11","N22"]},{"name":"Leopold Place","code":"36232576","latitude":"55.9580039978027","longitude":"-3.18314409255981","service_numbers":["4","5","15","26","44","45","N26","N44"]},{"name":"Hillside Crescen","code":"36232579","latitude":"55.9579277038574","longitude":"-3.17896103858948","service_numbers":["1","4","5","15","19","26","34","44","45","MA1","N26","N44"]},{"name":"Wellington Stree","code":"36232582","latitude":"55.9578666687012","longitude":"-3.1765730381012","service_numbers":["1","4","5","15","19","26","34","44","45","MA1","N26","N44"]},{"name":"Brunton Terrace","code":"36232583","latitude":"55.9577560424805","longitude":"-3.17306089401245","service_numbers":["4","5","15","19","26","34","44","45","MA1","N26","N44"]},{"name":"Caledonian Hotel","code":"36232692","latitude":"55.9492378234863","longitude":"-3.20689797401428","service_numbers":["1","4","10","11","15","15A","16","22","24","25","X25","X26","34","47","44","X44","N11","N16","N22","N31","N34","N44"]},{"name":"Abbeyhill","code":"36234256","latitude":"55.9574279785156","longitude":"-3.16803789138794","service_numbers":["4","5","15","26","X26","44","X44","45","113","N26","N44"]},{"name":"Marionville Road","code":"36234258","latitude":"55.9568862915039","longitude":"-3.16372895240784","service_numbers":["4","5","15","26","44","45","113","N26","N44"]},{"name":"Wishaw Terrace","code":"36234259","latitude":"55.9562225341797","longitude":"-3.15983295440674","service_numbers":["4","5","15","26","44","45","113","N26","N44"]},{"name":"Meadowbank Stadi","code":"36234262","latitude":"55.9558525085449","longitude":"-3.15685892105103","service_numbers":["4","5","15","26","44","45","113","N26","N44"]},{"name":"Meadowbank House","code":"36234263","latitude":"55.9551887512207","longitude":"-3.15123295783997","service_numbers":["4","5","15","26","X26","44","X44","45","113","N26","N44"]},{"name":"Piershill Square","code":"36234264","latitude":"55.9552459716797","longitude":"-3.14780807495117","service_numbers":["4","5","15","26","45","N26"]},{"name":"Piershill Square","code":"36234265","latitude":"55.955265045166","longitude":"-3.14574193954468","service_numbers":["4","5","15","26","45","N26"]},{"name":"Piersfield Terra","code":"36234267","latitude":"55.9555053710938","longitude":"-3.1419370174408","service_numbers":["4","5","15","26","45","N26"]},{"name":"Piersfield Terra","code":"36234268","latitude":"55.9558982849121","longitude":"-3.13954591751099","service_numbers":["15","26","45","69"]},{"name":"Moira Terrace","code":"36234269","latitude":"55.956241607666","longitude":"-3.13742589950562","service_numbers":["15","21","26","45","69","N26"]},{"name":"Fishwives Causew","code":"36234272","latitude":"55.9565582275391","longitude":"-3.13336706161499","service_numbers":["15","21","26","45","69","N26"]},{"name":"Moira Terrace","code":"36234273","latitude":"55.9569091796875","longitude":"-3.13041400909424","service_numbers":["15","21","26","45","69","N26"]},{"name":"Inchview Terrace","code":"36234274","latitude":"55.9574432373047","longitude":"-3.1257209777832","service_numbers":["15","21","26","45","69","N26"]},{"name":"Wakefield Avenue","code":"36234275","latitude":"55.9575653076172","longitude":"-3.12423396110535","service_numbers":["15","21","45"]},{"name":"Westbank Place","code":"36234278","latitude":"55.956672668457","longitude":"-3.12078094482422","service_numbers":["15","26","X26","40","45","113","N26"]},{"name":"Bridge Street","code":"36234279","latitude":"55.9550552368164","longitude":"-3.11773896217346","service_numbers":["15","21","26","40","42","45","49","N26"]},{"name":"PortobelloTown H","code":"36234283","latitude":"55.9532127380371","longitude":"-3.11473894119263","service_numbers":["15","26","X26","40","45","N26"]},{"name":"Marlbourough Str","code":"36234284","latitude":"55.9522514343262","longitude":"-3.11184501647949","service_numbers":["15","26","40","45","N26"]},{"name":"Phoenix House","code":"36234285","latitude":"55.9517288208008","longitude":"-3.10990810394287","service_numbers":["15","26","40","45","N26"]},{"name":"Pitville Street","code":"36234286","latitude":"55.9508361816406","longitude":"-3.10611891746521","service_numbers":["15","26","40","45","N26"]},{"name":"Brunstane Road N","code":"36234287","latitude":"55.9500579833984","longitude":"-3.10297393798828","service_numbers":["15","26","40","45","N26"]},{"name":"Ormelie Terrace","code":"36234289","latitude":"55.9493713378906","longitude":"-3.10013604164124","service_numbers":["15","26","40","45","N26"]},{"name":"Coillesdene Driv","code":"36234292","latitude":"55.9489593505859","longitude":"-3.09500002861023","service_numbers":["15","26","40","45","N26"]},{"name":"Seaview Terrace","code":"36234293","latitude":"55.9487609863281","longitude":"-3.09129500389099","service_numbers":["15","26","40","45","N26"]},{"name":"PortobelloTown H","code":"36234574","latitude":"55.9535827636719","longitude":"-3.11572694778442","service_numbers":["15","26","X26","40","45","N26"]},{"name":"Bridge Street","code":"36234576","latitude":"55.9549980163574","longitude":"-3.11813807487488","service_numbers":["15","21","26","40","42","45","49","69","N26"]},{"name":"Kings Road","code":"36234578","latitude":"55.9568367004395","longitude":"-3.12140989303589","service_numbers":["15","21","25","26","X26","40","42","45","49","69","113","N26"]},{"name":"Seaview Terrace","code":"36234629","latitude":"55.9485359191895","longitude":"-3.08813405036926","service_numbers":["15","26","40","45","N26"]},{"name":"Seaview Terrace","code":"36234632","latitude":"55.9485969543457","longitude":"-3.09125900268555","service_numbers":["15","26","40","45","N26"]},{"name":"Coillesdene Driv","code":"36234634","latitude":"55.9487953186035","longitude":"-3.09443497657776","service_numbers":["15","26","40","45","N26"]},{"name":"Morton Street","code":"36234635","latitude":"55.9493064880371","longitude":"-3.10045504570007","service_numbers":["15","26","40","45","N26"]},{"name":"Brunstane Road","code":"36234636","latitude":"55.9500770568848","longitude":"-3.10358309745789","service_numbers":["15","26","40","45","N26"]},{"name":"Pitville Street","code":"36234637","latitude":"55.9508666992188","longitude":"-3.10684108734131","service_numbers":["15","26","40","45","N26"]},{"name":"Phoenix House","code":"36234638","latitude":"55.9516410827637","longitude":"-3.10990500450134","service_numbers":["15","26","40","45","N26"]},{"name":"Windsor Place","code":"36234639","latitude":"55.9521598815918","longitude":"-3.11216306686401","service_numbers":["15","26","40","45","N26"]},{"name":"Moira Terrace","code":"36234642","latitude":"55.9572448730469","longitude":"-3.12576293945312","service_numbers":["15","21","26","45","69","N26"]},{"name":"Inchview Terrace","code":"36234643","latitude":"55.9570579528809","longitude":"-3.12771201133728","service_numbers":["15","21","26","45","69","N26"]},{"name":"Moira Terrace","code":"36234645","latitude":"55.956600189209","longitude":"-3.13147807121277","service_numbers":["15","21","26","45","69","N26"]},{"name":"Fishwives Causew","code":"36234646","latitude":"55.9563293457031","longitude":"-3.134850025177","service_numbers":["15","21","26","45","69","N26"]},{"name":"Craigentinny Ave","code":"36234647","latitude":"55.9558982849121","longitude":"-3.13871288299561","service_numbers":["15","26","45","69","N26"]},{"name":"Piersfield Terra","code":"36234724","latitude":"55.9550476074219","longitude":"-3.14479088783264","service_numbers":["4","5","15","26","45","N26"]},{"name":"Piershill","code":"36234725","latitude":"55.9550590515137","longitude":"-3.14769005775452","service_numbers":["4","5","15","26","45","N26"]},{"name":"St Margarets Hou","code":"36234737","latitude":"55.9551239013672","longitude":"-3.15240001678467","service_numbers":["4","5","15","26","X26","44","44A","X44","45","113","N26","N44"]},{"name":"Meadowbank","code":"36234738","latitude":"55.9556312561035","longitude":"-3.15661191940308","service_numbers":["4","5","15","26","44","44A","45","113","N26","N44"]},{"name":"Marionville Road","code":"36234739","latitude":"55.9563064575195","longitude":"-3.16124510765076","service_numbers":["4","5","15","26","44","44A","45","113","N26","N44"]},{"name":"Marionville Road","code":"36234742","latitude":"55.9567375183105","longitude":"-3.16394901275635","service_numbers":["4","5","15","26","44","44A","45","113","N26","N44"]},{"name":"Cadzow Place","code":"36234743","latitude":"55.957275390625","longitude":"-3.16792106628418","service_numbers":["4","5","15","19","26","X26","34","44","44A","X44","45","113","N26","N44"]},{"name":"Brunton Place","code":"36234745","latitude":"55.957592010498","longitude":"-3.17336106300354","service_numbers":["1","4","5","15","19","26","34","44","44A","45","N26","N44"]},{"name":"Brunton","code":"36234746","latitude":"55.9576797485352","longitude":"-3.17659902572632","service_numbers":["1","4","5","15","19","26","34","44","44A","45","N26","N44"]},{"name":"Brunswick Road","code":"36234747","latitude":"55.957763671875","longitude":"-3.18014097213745","service_numbers":["1","4","5","15","19","26","34","44","44A","45","N26","N44"]},{"name":"Leopold Place","code":"36234748","latitude":"55.9578323364258","longitude":"-3.18301105499268","service_numbers":["1","4","5","15","19","26","34","44","44A","45","N26","N44"]},{"name":"Usher Hall","code":"36235967","latitude":"55.9464874267578","longitude":"-3.20588397979736","service_numbers":["1","10","11","15","15A","16","24","34","47","N11","N16","N34"]},{"name":"Castle Street","code":"36235973","latitude":"55.9514045715332","longitude":"-3.20097589492798","service_numbers":["1","4","15","15A","26","X26","34","44","X44","N26","N34","N44"]},{"name":"Whitehouse Loan","code":"36236387","latitude":"55.9399223327637","longitude":"-3.20452690124512","service_numbers":["11","15","15A","16","23","45","N16"]},{"name":"Leven Street","code":"36236389","latitude":"55.9413795471191","longitude":"-3.20362710952759","service_numbers":["11","15","15A","16","23","45","N16"]},{"name":"Fountainbridge","code":"36236435","latitude":"55.9451179504395","longitude":"-3.20542502403259","service_numbers":["10","11","15","15A","16","24","47","N16"]},{"name":"Comiston Place","code":"36236963","latitude":"55.9234390258789","longitude":"-3.210608959198","service_numbers":["5","11","15","15A","16","N16"]},{"name":"Morningside Ceme","code":"36236965","latitude":"55.9224166870117","longitude":"-3.21100902557373","service_numbers":["5","11","15","15A","16","N16"]},{"name":"Sth Morningside","code":"36236967","latitude":"55.9212760925293","longitude":"-3.21185398101807","service_numbers":["5","11","15","15A","16","N16"]},{"name":"Braid Crescent","code":"36236968","latitude":"55.9208297729492","longitude":"-3.21188807487488","service_numbers":["5","11","15","15A","16","N16"]},{"name":"Greenbank Terrac","code":"36236969","latitude":"55.9198608398438","longitude":"-3.2126259803772","service_numbers":["5","11","15","15A","16","N16"]},{"name":"Braid Burn","code":"36236972","latitude":"55.918643951416","longitude":"-3.21289205551147","service_numbers":["11","15","15A"]},{"name":"Braid Hills Hote","code":"36236973","latitude":"55.9174995422363","longitude":"-3.21307992935181","service_numbers":["11","15","15A"]},{"name":"Braid Hills Hote","code":"36236974","latitude":"55.9172821044922","longitude":"-3.21334505081177","service_numbers":["11","15","15A"]},{"name":"Pentland Terrace","code":"36236975","latitude":"55.9153671264648","longitude":"-3.21336507797241","service_numbers":["11","15","15A"]},{"name":"Riselaw Place","code":"36236976","latitude":"55.9153938293457","longitude":"-3.21365404129028","service_numbers":["11","15","15A"]},{"name":"Pentland Terrace","code":"36236978","latitude":"55.9128608703613","longitude":"-3.21343088150024","service_numbers":["11","15","15A"]},{"name":"Riselaw Crescent","code":"36236979","latitude":"55.9129943847656","longitude":"-3.21372294425964","service_numbers":["11","15","15A"]},{"name":"Pentland Terrace","code":"36236982","latitude":"55.9112129211426","longitude":"-3.21203589439392","service_numbers":["11","15","15A"]},{"name":"Comiston Rise","code":"36236983","latitude":"55.910587310791","longitude":"-3.21158409118652","service_numbers":["11","15","15A"]},{"name":"Pentland Terrace","code":"36236984","latitude":"55.9092292785645","longitude":"-3.20983004570007","service_numbers":["11","15","15A"]},{"name":"Braid Road","code":"36236985","latitude":"55.9091644287109","longitude":"-3.21003603935242","service_numbers":["11","15","15A"]},{"name":"Buckstone Terrac","code":"36236986","latitude":"55.9068794250488","longitude":"-3.20834898948669","service_numbers":["11","15","15A"]},{"name":"Buckstone Terrac","code":"36236987","latitude":"55.9068260192871","longitude":"-3.20853900909424","service_numbers":["11","15","15A"]},{"name":"Caiystane Cresce","code":"36236989","latitude":"55.9042701721191","longitude":"-3.20716404914856","service_numbers":["11","15","15A"]},{"name":"Buckstone Terrac","code":"36237232","latitude":"55.9041481018066","longitude":"-3.2067449092865","service_numbers":["11","15","15A"]},{"name":"Fairmilehead Cro","code":"36237234","latitude":"55.9023399353027","longitude":"-3.20486497879028","service_numbers":["11","15","15A"]},{"name":"Buckstone Terrac","code":"36237235","latitude":"55.9021339416504","longitude":"-3.20503497123718","service_numbers":["11","15","15A"]},{"name":"Winton Grove","code":"36237236","latitude":"55.8993835449219","longitude":"-3.20397400856018","service_numbers":["4","15","15A"]},{"name":"Swanston Avenue","code":"36237237","latitude":"55.8991661071777","longitude":"-3.20415902137756","service_numbers":["4","15","15A"]},{"name":"Fairmile Inn","code":"36237238","latitude":"55.8976745605469","longitude":"-3.20356893539429","service_numbers":["4","15","15A"]},{"name":"Fairmile Inn","code":"36237239","latitude":"55.8970069885254","longitude":"-3.2036759853363","service_numbers":["4","15","15A"]},{"name":"Maxwell Street","code":"36237242","latitude":"55.9261016845703","longitude":"-3.20934700965881","service_numbers":["5","11","15","15A","16","23","N16"]},{"name":"Morningside Park","code":"36237243","latitude":"55.9281578063965","longitude":"-3.20952296257019","service_numbers":["5","11","15","15A","16","23","N16"]},{"name":"Falcon Avenue","code":"36237246","latitude":"55.9303550720215","longitude":"-3.20986390113831","service_numbers":["5","11","15","15A","16","23","N16"]},{"name":"Churchhill","code":"36237247","latitude":"55.9325790405273","longitude":"-3.21017408370972","service_numbers":["11","15","15A","16","23","N16"]},{"name":"Holy Corner","code":"36237248","latitude":"55.9346122741699","longitude":"-3.2102370262146","service_numbers":["11","15","15A","16","23","45","N16"]},{"name":"Montpelier Park","code":"36237249","latitude":"55.9360733032227","longitude":"-3.20949792861938","service_numbers":["11","15","15A","16","23","45","N16"]},{"name":"Viewforth","code":"36237252","latitude":"55.9365463256836","longitude":"-3.20799207687378","service_numbers":["11","15","15A","16","23","45","N16"]},{"name":"Viewforth","code":"36237253","latitude":"55.9371185302734","longitude":"-3.20724105834961","service_numbers":["11","15","15A","16","23","45","N16"]},{"name":"Spring Gardens","code":"36238593","latitude":"55.9287796020508","longitude":"-3.20941495895386","service_numbers":["5","11","15","15A","16","23","N16"]},{"name":"Seaview Terrace","code":"36238627","latitude":"55.9487609863281","longitude":"-3.08695602416992","service_numbers":["15","26"]},{"name":"St James Hotel","code":"36242687","latitude":"55.9543266296387","longitude":"-3.18782091140747","service_numbers":["1","4","5","15","19","26","34","44","45"]},{"name":"Omni Centre","code":"36242691","latitude":"55.9554443359375","longitude":"-3.18665409088135","service_numbers":["1","4","10","11","12","15","16","19","22","25","26","34","44","44A","N3","N11","N16","N22","N25","N26","N30","N31","N34","N37","N44"]},{"name":"Frederick Street","code":"36243234","latitude":"55.9512939453125","longitude":"-3.20057201385498","service_numbers":["10","11","15","15A","16","24","N16"]},{"name":"Royal Scottish A","code":"36243252","latitude":"55.9522819519043","longitude":"-3.19490098953247","service_numbers":["10","11","12","15","15A","16","26","31"]},{"name":"Tollcross","code":"36245269","latitude":"55.9428596496582","longitude":"-3.20378494262695","service_numbers":["10","11","15","15A","16","23","27","45","N16"]},{"name":"Marine Garage ro","code":"36245936","latitude":"55.9590034484863","longitude":"-3.12328290939331","service_numbers":["4","15","19","21","X37","40","42","X44","67","C134"]},{"name":"Castle Street","code":"36246256","latitude":"55.9507637023926","longitude":"-3.20331001281738","service_numbers":["10","11","12","X12","15","15A","16","24","26","X26","31","X31","N16","N26"]},{"name":"outside GAP","code":"36246267","latitude":"55.9507484436035","longitude":"-3.20483088493347","service_numbers":["1","4","15","15A","26","X26","34","44","X44","N26","N34","N44"]},{"name":"outside Jenners","code":"36253279","latitude":"55.9526329040527","longitude":"-3.19396710395813","service_numbers":["4","15","15A","24","26","X26","42","44","X44","113","N3","N11","N16","N22","N26","N30","N31","N34","N37","N44"]},{"name":"The Brae (foot)","code":"64323232","latitude":"55.844654083252","longitude":"-3.19261908531189","service_numbers":["15","15A"]},{"name":"The Brae (foot)","code":"64323234","latitude":"55.8453712463379","longitude":"-3.19296097755432","service_numbers":["15","15A"]},{"name":"The Brae (top)","code":"64323235","latitude":"55.847240447998","longitude":"-3.19197988510132","service_numbers":["15","15A"]},{"name":"The Brae (top)","code":"64323236","latitude":"55.8475379943848","longitude":"-3.19206809997559","service_numbers":["15","15A"]},{"name":"Bilston Cottages","code":"64323237","latitude":"55.8690605163574","longitude":"-3.17786502838135","service_numbers":["15","15A","40"]},{"name":"Moorfoot View","code":"64323238","latitude":"55.8689842224121","longitude":"-3.17901396751404","service_numbers":["15","15A","37","47","X37","67","N37"]},{"name":"Moorfoot View","code":"64323239","latitude":"55.8673858642578","longitude":"-3.18005204200745","service_numbers":["15","15A","37","47","X37","67","N37"]},{"name":"Ploverhall cotta","code":"64323242","latitude":"55.8639602661133","longitude":"-3.18296790122986","service_numbers":["15","15A","37","47","X37","67","N37"]},{"name":"Ploverhall Cotta","code":"64323243","latitude":"55.8629570007324","longitude":"-3.18346500396729","service_numbers":["15","15A","37","47","X37","67","N37"]},{"name":"Bush Research Pa","code":"64323436","latitude":"55.8594055175781","longitude":"-3.19752907752991","service_numbers":["15","47","67"]},{"name":"Bush Research Pa","code":"64323437","latitude":"55.8594284057617","longitude":"-3.19714593887329","service_numbers":["15","47","67"]},{"name":"Bush Road End","code":"64323439","latitude":"55.8694763183594","longitude":"-3.19034290313721","service_numbers":["15","15A"]},{"name":"Gowkley Moss","code":"64323452","latitude":"55.8577079772949","longitude":"-3.19014310836792","service_numbers":["15","47","67"]},{"name":"Pentlands Scienc","code":"64323453","latitude":"55.8583946228027","longitude":"-3.19336009025574","service_numbers":["11","15","47","67"]},{"name":"Pentland Science","code":"64323454","latitude":"55.8582611083984","longitude":"-3.19335603713989","service_numbers":["15","47","67"]},{"name":"Midlothian Inova","code":"64323456","latitude":"55.8682174682617","longitude":"-3.19415593147278","service_numbers":["15","47","67"]},{"name":"Midlothian Innov","code":"64323457","latitude":"55.8682594299316","longitude":"-3.1947329044342","service_numbers":["15","47","67"]},{"name":"Easter Bush Camp","code":"64323458","latitude":"55.8662872314453","longitude":"-3.19970607757568","service_numbers":["15","47","67"]},{"name":"Easter Bush Camp","code":"64323459","latitude":"55.8663368225098","longitude":"-3.19919610023499","service_numbers":["15","47","67"]},{"name":"Technopole","code":"64323462","latitude":"55.8627014160156","longitude":"-3.20339798927307","service_numbers":["15","47","67"]},{"name":"Technopole","code":"64323463","latitude":"55.8625030517578","longitude":"-3.20336008071899","service_numbers":["15","47","67"]},{"name":"Queensway","code":"64323558","latitude":"55.8364791870117","longitude":"-3.21999311447144","service_numbers":["15","15A","37","47","X37","40","67","N37"]},{"name":"Damhead Holdings","code":"64323572","latitude":"55.8796081542969","longitude":"-3.19273090362549","service_numbers":["15","15A"]},{"name":"Damhead Holdings","code":"64323573","latitude":"55.8794479370117","longitude":"-3.19247102737427","service_numbers":["15","15A"]},{"name":"A702 Damhead","code":"64323574","latitude":"55.88720703125","longitude":"-3.19779300689697","service_numbers":["15","15A"]},{"name":"Damhead","code":"64323575","latitude":"55.8873634338379","longitude":"-3.19755792617798","service_numbers":["15","15A"]},{"name":"Gowkley Moss","code":"64323727","latitude":"55.8586502075195","longitude":"-3.1865611076355","service_numbers":["15","37","47","X37","N37"]},{"name":"Gowkley Moss","code":"64323728","latitude":"55.8588523864746","longitude":"-3.18634390830994","service_numbers":["15","37","47","X37","N37"]},{"name":"Lothianburn Golf","code":"64323843","latitude":"55.8928031921387","longitude":"-3.20159506797791","service_numbers":["4","15","15A"]},{"name":"Golf Club for Sn","code":"64323846","latitude":"55.8922882080078","longitude":"-3.20111608505249","service_numbers":["4","15","15A"]},{"name":"Angle Park","code":"64324265","latitude":"55.8312721252441","longitude":"-3.22386908531189","service_numbers":["15","15A","37","47","X37","40","67"]},{"name":"Angle Park","code":"64324267","latitude":"55.8313179016113","longitude":"-3.22414207458496","service_numbers":["15","15A","37","47","X37","40","67","N37"]},{"name":"Beeslack High Sc","code":"64324269","latitude":"55.8412246704102","longitude":"-3.21247601509094","service_numbers":["15","15A","37","47","X37","40","67","N37"]},{"name":"Beeslack High Sc","code":"64324272","latitude":"55.8404998779297","longitude":"-3.21325206756592","service_numbers":["15","15A","37","47","X37","40","67","N37"]},{"name":"Cuiken Ave.","code":"64324283","latitude":"55.8334159851074","longitude":"-3.22253203392029","service_numbers":["15","15A","37","47","X37","40","67"]},{"name":"Cuiken Avenue","code":"64324284","latitude":"55.8339385986328","longitude":"-3.22230911254883","service_numbers":["15","15A","37","47","X37","40","67","N37"]},{"name":"Glencorse Barrac","code":"64324298","latitude":"55.8460731506348","longitude":"-3.20384311676025","service_numbers":["15","15A","37","47","X37","40","67","N37"]},{"name":"Glencorse Barrac","code":"64324323","latitude":"55.8460426330566","longitude":"-3.20419311523438","service_numbers":["15","15A","37","47","X37","40","67","N37"]},{"name":"John Street Lane","code":"64324328","latitude":"55.8302383422852","longitude":"-3.22410798072815","service_numbers":["15","15A","37","47","X37","40","67","N37"]},{"name":"Mauricewood Road","code":"64324346","latitude":"55.8386650085449","longitude":"-3.21718692779541","service_numbers":["15","15A","37","47","X37","40","67","N37"]},{"name":"Mauricewood Road","code":"64324347","latitude":"55.8393020629883","longitude":"-3.21640801429749","service_numbers":["15","15A","37","47","X37","40","67","N37"]},{"name":"Queensway","code":"64324357","latitude":"55.8355751037598","longitude":"-3.22060298919678","service_numbers":["15","15A","37","47","X37","40","67"]},{"name":"Samoa Terrace","code":"64324369","latitude":"55.8434371948242","longitude":"-3.20679593086243","service_numbers":["15","15A","37","47","X37","40","67","N37"]},{"name":"Samoa Terrace","code":"64324372","latitude":"55.8428764343262","longitude":"-3.20917391777039","service_numbers":["15","15A","37","47","X37","40","67","N37"]},{"name":"Town Centre Term","code":"64324373","latitude":"55.8279609680176","longitude":"-3.2216420173645","service_numbers":["15","15A","37","47","X37","40","67"]},{"name":"Town Centre","code":"64324374","latitude":"55.8278388977051","longitude":"-3.22152590751648","service_numbers":["15","15A","37","47","X37","40","67","N37"]},{"name":"Wilson Street","code":"64324376","latitude":"55.8292579650879","longitude":"-3.22311902046204","service_numbers":["15","15A","37","47","X37","40","67"]},{"name":"Wilson Street","code":"64324378","latitude":"55.8287200927734","longitude":"-3.22310304641724","service_numbers":["15","15A","37","47","X37","40","67","N37"]},{"name":"Langhill Farm","code":"64324532","latitude":"55.8649826049805","longitude":"-3.17198896408081","service_numbers":["15","15A","40"]},{"name":"Original Rosslyn","code":"64324534","latitude":"55.8571472167969","longitude":"-3.16424489021301","service_numbers":["15","15A","40"]},{"name":"Rosslyn Hotel","code":"64324535","latitude":"55.8573226928711","longitude":"-3.16472911834717","service_numbers":["15","15A","40"]},{"name":"Penicuik Road","code":"64324536","latitude":"55.855770111084","longitude":"-3.16739892959595","service_numbers":["15","15A","40"]},{"name":"Penicuik Road","code":"64324537","latitude":"55.8560066223145","longitude":"-3.16716599464417","service_numbers":["15","15A","40"]},{"name":"Roslin Institute","code":"64324538","latitude":"55.8612174987793","longitude":"-3.16923999786377","service_numbers":["15","15A","40"]},{"name":"Roslin Institute","code":"64324539","latitude":"55.8617782592773","longitude":"-3.1697518825531","service_numbers":["15","15A","40"]},{"name":"Springfield Plac","code":"64324542","latitude":"55.8596267700195","longitude":"-3.16815304756165","service_numbers":["15","15A","40"]},{"name":"Springfield Plac","code":"64324543","latitude":"55.8593597412109","longitude":"-3.1679859161377","service_numbers":["15","15A","40"]},{"name":"Station Road","code":"64324545","latitude":"55.8580322265625","longitude":"-3.1655490398407","service_numbers":["15","15A","40"]},{"name":"Station Road","code":"64324546","latitude":"55.8584747314453","longitude":"-3.1665210723877","service_numbers":["15","15A","40"]},{"name":"Woodend Park","code":"64324547","latitude":"55.8561477661133","longitude":"-3.17475891113281","service_numbers":["15","15A","40"]},{"name":"Woodend Park","code":"64324548","latitude":"55.8562431335449","longitude":"-3.17428207397461","service_numbers":["15","15A","40"]},{"name":"Bilston Cottages","code":"64324642","latitude":"55.8685874938965","longitude":"-3.17751598358154","service_numbers":["15","15A","40"]},{"name":"Gowkley Moss","code":"64324678","latitude":"55.8577346801758","longitude":"-3.18281102180481","service_numbers":["15","15A","40"]},{"name":"Gowkley Moss","code":"64324679","latitude":"55.8578453063965","longitude":"-3.18236708641052","service_numbers":["15","15A","40"]},{"name":"Roslin Surgery","code":"64324743","latitude":"55.8572692871094","longitude":"-3.17888307571411","service_numbers":["15","15A","40"]},{"name":"Roslin Surgery","code":"64324745","latitude":"55.857234954834","longitude":"-3.17956900596619","service_numbers":["15","15A","40"]},{"name":"Gowkley Moss","code":"64325843","latitude":"55.8577537536621","longitude":"-3.18830704689026","service_numbers":["15","47","67"]},{"name":"Castlelaw Cresce","code":"64329289","latitude":"55.8661422729492","longitude":"-3.18135595321655","service_numbers":["15","15A","37","47","X37","67","N37"]},{"name":"Seafield Moor Ro","code":"64329294","latitude":"55.8689727783203","longitude":"-3.1904399394989","service_numbers":["15","47","67"]}];