var Stops = Stops || {};Stops['45'] = [{"name":"Tollcross","code":"36232563","latitude":"55.9429321289062","longitude":"-3.20354700088501","service_numbers":["10","27","45"]},{"name":"Leven Street","code":"36232565","latitude":"55.9413642883301","longitude":"-3.20340299606323","service_numbers":["11","15","15A","16","23","45","N16"]},{"name":"Whitehouse Loan","code":"36232567","latitude":"55.9389495849609","longitude":"-3.20478510856628","service_numbers":["11","15","15A","16","23","45","N16"]},{"name":"Holy Corner","code":"36232568","latitude":"55.9350433349609","longitude":"-3.21005797386169","service_numbers":["11","15","15A","16","23","45","N16"]},{"name":"Leopold Place","code":"36232576","latitude":"55.9580039978027","longitude":"-3.18314409255981","service_numbers":["4","5","15","26","44","45","N26","N44"]},{"name":"Hillside Crescen","code":"36232579","latitude":"55.9579277038574","longitude":"-3.17896103858948","service_numbers":["1","4","5","15","19","26","34","44","45","MA1","N26","N44"]},{"name":"Wellington Stree","code":"36232582","latitude":"55.9578666687012","longitude":"-3.1765730381012","service_numbers":["1","4","5","15","19","26","34","44","45","MA1","N26","N44"]},{"name":"Brunton Terrace","code":"36232583","latitude":"55.9577560424805","longitude":"-3.17306089401245","service_numbers":["4","5","15","19","26","34","44","45","MA1","N26","N44"]},{"name":"Abbeyhill","code":"36234256","latitude":"55.9574279785156","longitude":"-3.16803789138794","service_numbers":["4","5","15","26","X26","44","X44","45","113","N26","N44"]},{"name":"Marionville Road","code":"36234258","latitude":"55.9568862915039","longitude":"-3.16372895240784","service_numbers":["4","5","15","26","44","45","113","N26","N44"]},{"name":"Wishaw Terrace","code":"36234259","latitude":"55.9562225341797","longitude":"-3.15983295440674","service_numbers":["4","5","15","26","44","45","113","N26","N44"]},{"name":"Meadowbank Stadi","code":"36234262","latitude":"55.9558525085449","longitude":"-3.15685892105103","service_numbers":["4","5","15","26","44","45","113","N26","N44"]},{"name":"Meadowbank House","code":"36234263","latitude":"55.9551887512207","longitude":"-3.15123295783997","service_numbers":["4","5","15","26","X26","44","X44","45","113","N26","N44"]},{"name":"Piershill Square","code":"36234264","latitude":"55.9552459716797","longitude":"-3.14780807495117","service_numbers":["4","5","15","26","45","N26"]},{"name":"Piershill Square","code":"36234265","latitude":"55.955265045166","longitude":"-3.14574193954468","service_numbers":["4","5","15","26","45","N26"]},{"name":"Piersfield Terra","code":"36234267","latitude":"55.9555053710938","longitude":"-3.1419370174408","service_numbers":["4","5","15","26","45","N26"]},{"name":"Piersfield Terra","code":"36234268","latitude":"55.9558982849121","longitude":"-3.13954591751099","service_numbers":["15","26","45","69"]},{"name":"Moira Terrace","code":"36234269","latitude":"55.956241607666","longitude":"-3.13742589950562","service_numbers":["15","21","26","45","69","N26"]},{"name":"Fishwives Causew","code":"36234272","latitude":"55.9565582275391","longitude":"-3.13336706161499","service_numbers":["15","21","26","45","69","N26"]},{"name":"Moira Terrace","code":"36234273","latitude":"55.9569091796875","longitude":"-3.13041400909424","service_numbers":["15","21","26","45","69","N26"]},{"name":"Inchview Terrace","code":"36234274","latitude":"55.9574432373047","longitude":"-3.1257209777832","service_numbers":["15","21","26","45","69","N26"]},{"name":"Wakefield Avenue","code":"36234275","latitude":"55.9575653076172","longitude":"-3.12423396110535","service_numbers":["15","21","45"]},{"name":"Westbank Place","code":"36234278","latitude":"55.956672668457","longitude":"-3.12078094482422","service_numbers":["15","26","X26","40","45","113","N26"]},{"name":"Bridge Street","code":"36234279","latitude":"55.9550552368164","longitude":"-3.11773896217346","service_numbers":["15","21","26","40","42","45","49","N26"]},{"name":"PortobelloTown H","code":"36234283","latitude":"55.9532127380371","longitude":"-3.11473894119263","service_numbers":["15","26","X26","40","45","N26"]},{"name":"Marlbourough Str","code":"36234284","latitude":"55.9522514343262","longitude":"-3.11184501647949","service_numbers":["15","26","40","45","N26"]},{"name":"Phoenix House","code":"36234285","latitude":"55.9517288208008","longitude":"-3.10990810394287","service_numbers":["15","26","40","45","N26"]},{"name":"Pitville Street","code":"36234286","latitude":"55.9508361816406","longitude":"-3.10611891746521","service_numbers":["15","26","40","45","N26"]},{"name":"Brunstane Road N","code":"36234287","latitude":"55.9500579833984","longitude":"-3.10297393798828","service_numbers":["15","26","40","45","N26"]},{"name":"Ormelie Terrace","code":"36234289","latitude":"55.9493713378906","longitude":"-3.10013604164124","service_numbers":["15","26","40","45","N26"]},{"name":"Coillesdene Driv","code":"36234292","latitude":"55.9489593505859","longitude":"-3.09500002861023","service_numbers":["15","26","40","45","N26"]},{"name":"Seaview Terrace","code":"36234293","latitude":"55.9487609863281","longitude":"-3.09129500389099","service_numbers":["15","26","40","45","N26"]},{"name":"Seaview Terrace","code":"36234294","latitude":"55.9486808776855","longitude":"-3.08704996109009","service_numbers":["26","40","45","N26"]},{"name":"Seaview Terrace","code":"36234295","latitude":"55.9478569030762","longitude":"-3.08276700973511","service_numbers":["26","40","45","N26"]},{"name":"PortobelloTown H","code":"36234574","latitude":"55.9535827636719","longitude":"-3.11572694778442","service_numbers":["15","26","X26","40","45","N26"]},{"name":"Bridge Street","code":"36234576","latitude":"55.9549980163574","longitude":"-3.11813807487488","service_numbers":["15","21","26","40","42","45","49","69","N26"]},{"name":"Kings Road","code":"36234578","latitude":"55.9568367004395","longitude":"-3.12140989303589","service_numbers":["15","21","25","26","X26","40","42","45","49","69","113","N26"]},{"name":"Seaview Terrace","code":"36234627","latitude":"55.9470405578613","longitude":"-3.08127093315125","service_numbers":["26","40","45","N26"]},{"name":"Seaview Terrace","code":"36234628","latitude":"55.9480972290039","longitude":"-3.08407092094421","service_numbers":["26","40","45","N26"]},{"name":"Seaview Terrace","code":"36234629","latitude":"55.9485359191895","longitude":"-3.08813405036926","service_numbers":["15","26","40","45","N26"]},{"name":"Seaview Terrace","code":"36234632","latitude":"55.9485969543457","longitude":"-3.09125900268555","service_numbers":["15","26","40","45","N26"]},{"name":"Coillesdene Driv","code":"36234634","latitude":"55.9487953186035","longitude":"-3.09443497657776","service_numbers":["15","26","40","45","N26"]},{"name":"Morton Street","code":"36234635","latitude":"55.9493064880371","longitude":"-3.10045504570007","service_numbers":["15","26","40","45","N26"]},{"name":"Brunstane Road","code":"36234636","latitude":"55.9500770568848","longitude":"-3.10358309745789","service_numbers":["15","26","40","45","N26"]},{"name":"Pitville Street","code":"36234637","latitude":"55.9508666992188","longitude":"-3.10684108734131","service_numbers":["15","26","40","45","N26"]},{"name":"Phoenix House","code":"36234638","latitude":"55.9516410827637","longitude":"-3.10990500450134","service_numbers":["15","26","40","45","N26"]},{"name":"Windsor Place","code":"36234639","latitude":"55.9521598815918","longitude":"-3.11216306686401","service_numbers":["15","26","40","45","N26"]},{"name":"Moira Terrace","code":"36234642","latitude":"55.9572448730469","longitude":"-3.12576293945312","service_numbers":["15","21","26","45","69","N26"]},{"name":"Inchview Terrace","code":"36234643","latitude":"55.9570579528809","longitude":"-3.12771201133728","service_numbers":["15","21","26","45","69","N26"]},{"name":"Moira Terrace","code":"36234645","latitude":"55.956600189209","longitude":"-3.13147807121277","service_numbers":["15","21","26","45","69","N26"]},{"name":"Fishwives Causew","code":"36234646","latitude":"55.9563293457031","longitude":"-3.134850025177","service_numbers":["15","21","26","45","69","N26"]},{"name":"Craigentinny Ave","code":"36234647","latitude":"55.9558982849121","longitude":"-3.13871288299561","service_numbers":["15","26","45","69","N26"]},{"name":"Piersfield Terra","code":"36234724","latitude":"55.9550476074219","longitude":"-3.14479088783264","service_numbers":["4","5","15","26","45","N26"]},{"name":"Piershill","code":"36234725","latitude":"55.9550590515137","longitude":"-3.14769005775452","service_numbers":["4","5","15","26","45","N26"]},{"name":"St Margarets Hou","code":"36234737","latitude":"55.9551239013672","longitude":"-3.15240001678467","service_numbers":["4","5","15","26","X26","44","44A","X44","45","113","N26","N44"]},{"name":"Meadowbank","code":"36234738","latitude":"55.9556312561035","longitude":"-3.15661191940308","service_numbers":["4","5","15","26","44","44A","45","113","N26","N44"]},{"name":"Marionville Road","code":"36234739","latitude":"55.9563064575195","longitude":"-3.16124510765076","service_numbers":["4","5","15","26","44","44A","45","113","N26","N44"]},{"name":"Marionville Road","code":"36234742","latitude":"55.9567375183105","longitude":"-3.16394901275635","service_numbers":["4","5","15","26","44","44A","45","113","N26","N44"]},{"name":"Cadzow Place","code":"36234743","latitude":"55.957275390625","longitude":"-3.16792106628418","service_numbers":["4","5","15","19","26","X26","34","44","44A","X44","45","113","N26","N44"]},{"name":"Brunton Place","code":"36234745","latitude":"55.957592010498","longitude":"-3.17336106300354","service_numbers":["1","4","5","15","19","26","34","44","44A","45","N26","N44"]},{"name":"Brunton","code":"36234746","latitude":"55.9576797485352","longitude":"-3.17659902572632","service_numbers":["1","4","5","15","19","26","34","44","44A","45","N26","N44"]},{"name":"Brunswick Road","code":"36234747","latitude":"55.957763671875","longitude":"-3.18014097213745","service_numbers":["1","4","5","15","19","26","34","44","44A","45","N26","N44"]},{"name":"Leopold Place","code":"36234748","latitude":"55.9578323364258","longitude":"-3.18301105499268","service_numbers":["1","4","5","15","19","26","34","44","44A","45","N26","N44"]},{"name":"St James Centre","code":"36234749","latitude":"55.9539756774902","longitude":"-3.18806600570679","service_numbers":["5","7","8","14","29","30","47","45","49","N3","N30","N31","N37"]},{"name":"North Bridge","code":"36234753","latitude":"55.9518356323242","longitude":"-3.18820905685425","service_numbers":["3","5","8","29","X29","45","N3"]},{"name":"South Bridge","code":"36234756","latitude":"55.9490432739258","longitude":"-3.18681001663208","service_numbers":["3","5","8","14","29","X29","30","33","35","45","49","N3","N30"]},{"name":"The Avenue","code":"36234873","latitude":"55.9102554321289","longitude":"-3.31740188598633","service_numbers":["20","25","X25","34","45","N25","N34"]},{"name":"Heriot Watt Univ","code":"36234874","latitude":"55.909049987793","longitude":"-3.3200159072876","service_numbers":["25","X25","34","44","45"]},{"name":"The Avenue","code":"36234875","latitude":"55.9105911254883","longitude":"-3.31699705123901","service_numbers":["25","X25","34","45","N25","N34"]},{"name":"Curriehill Stati","code":"36234935","latitude":"55.8968467712402","longitude":"-3.31261301040649","service_numbers":["25","45"]},{"name":"Currie Primary","code":"36234936","latitude":"55.8978042602539","longitude":"-3.31387710571289","service_numbers":["45"]},{"name":"Colinton Village","code":"36235342","latitude":"55.9073448181152","longitude":"-3.25885009765625","service_numbers":["18","45"]},{"name":"Colinton Village","code":"36235343","latitude":"55.907283782959","longitude":"-3.25873589515686","service_numbers":["18","45"]},{"name":"Spylaw Bank","code":"36235345","latitude":"55.9072189331055","longitude":"-3.26684403419495","service_numbers":["18","45"]},{"name":"Spylaw Bank","code":"36235346","latitude":"55.9071578979492","longitude":"-3.26743388175964","service_numbers":["18","45"]},{"name":"Spylaw Avenue","code":"36235347","latitude":"55.9076080322266","longitude":"-3.27085590362549","service_numbers":["18","45"]},{"name":"North Bridge","code":"36235879","latitude":"55.9513320922852","longitude":"-3.18825697898865","service_numbers":["5","7","8","14","45","49"]},{"name":"Rustic Cottages","code":"36236345","latitude":"55.9079742431641","longitude":"-3.25367093086243","service_numbers":["10","18","45"]},{"name":"Rustic Cottages","code":"36236346","latitude":"55.9083023071289","longitude":"-3.25312209129333","service_numbers":["10","16","18","45","N16"]},{"name":"Whitehouse Loan","code":"36236387","latitude":"55.9399223327637","longitude":"-3.20452690124512","service_numbers":["11","15","15A","16","23","45","N16"]},{"name":"Leven Street","code":"36236389","latitude":"55.9413795471191","longitude":"-3.20362710952759","service_numbers":["11","15","15A","16","23","45","N16"]},{"name":"Forrest Road","code":"36236456","latitude":"55.9462432861328","longitude":"-3.19112801551819","service_numbers":["2","23","27","35","47","41","42","45","67"]},{"name":"High Riggs","code":"36236459","latitude":"55.9444007873535","longitude":"-3.20234394073486","service_numbers":["23","27","35","47","45"]},{"name":"Chalmers Street","code":"36236462","latitude":"55.944881439209","longitude":"-3.19842004776001","service_numbers":["23","27","35","47","45","CS1","WHT"]},{"name":"Keir Street","code":"36236463","latitude":"55.9449882507324","longitude":"-3.19659805297852","service_numbers":["23","27","35","47","45"]},{"name":"Lauriston Terrac","code":"36236464","latitude":"55.94482421875","longitude":"-3.19489502906799","service_numbers":["23","27","35","47","45","CS1","WHT"]},{"name":"Middle Meadow Wa","code":"36236465","latitude":"55.9452095031738","longitude":"-3.19226503372192","service_numbers":["23","27","35","47","45","CS1","WHT"]},{"name":"Holy Corner","code":"36237248","latitude":"55.9346122741699","longitude":"-3.2102370262146","service_numbers":["11","15","15A","16","23","45","N16"]},{"name":"Montpelier Park","code":"36237249","latitude":"55.9360733032227","longitude":"-3.20949792861938","service_numbers":["11","15","15A","16","23","45","N16"]},{"name":"Viewforth","code":"36237252","latitude":"55.9365463256836","longitude":"-3.20799207687378","service_numbers":["11","15","15A","16","23","45","N16"]},{"name":"Viewforth","code":"36237253","latitude":"55.9371185302734","longitude":"-3.20724105834961","service_numbers":["11","15","15A","16","23","45","N16"]},{"name":"Bank of Scotland","code":"36237425","latitude":"55.8968391418457","longitude":"-3.3064079284668","service_numbers":["44","X44","45","N44"]},{"name":"Viewfield Road","code":"36237486","latitude":"55.9075889587402","longitude":"-3.27373504638672","service_numbers":["44","44A","X44","45","N44"]},{"name":"Muirend Avenue","code":"36237487","latitude":"55.9072113037109","longitude":"-3.27554607391357","service_numbers":["44","X44","45","N44"]},{"name":"Foulis Crescent","code":"36237489","latitude":"55.9062957763672","longitude":"-3.27794790267944","service_numbers":["44","X44","45","N44"]},{"name":"Foulis Crescent","code":"36237492","latitude":"55.9060020446777","longitude":"-3.27838611602783","service_numbers":["44","44A","X44","45","N44"]},{"name":"Juniper Green Ch","code":"36237493","latitude":"55.9051399230957","longitude":"-3.28117299079895","service_numbers":["44","X44","45","N44"]},{"name":"Juniper Green Ch","code":"36237494","latitude":"55.9048385620117","longitude":"-3.28161096572876","service_numbers":["44","44A","X44","45","N44"]},{"name":"Woodhall Drive","code":"36237495","latitude":"55.9039878845215","longitude":"-3.28375792503357","service_numbers":["44","44A","X44","45","N44"]},{"name":"Baberton Avenue","code":"36237496","latitude":"55.9033432006836","longitude":"-3.28519296646118","service_numbers":["44","44A","X44","45","N44"]},{"name":"Railway Inn","code":"36237497","latitude":"55.9034156799316","longitude":"-3.28537106513977","service_numbers":["44","X44","45","N44"]},{"name":"Scott ofJuniper","code":"36237498","latitude":"55.9026031494141","longitude":"-3.2874550819397","service_numbers":["44","X44","45","N44"]},{"name":"Juniper Avenue","code":"36237524","latitude":"55.9017715454102","longitude":"-3.28945899009705","service_numbers":["44","44A","X44","45","N44"]},{"name":"Muir Wood Road","code":"36237525","latitude":"55.9003753662109","longitude":"-3.29485106468201","service_numbers":["44","X44","45","N44"]},{"name":"Jet Garage","code":"36237526","latitude":"55.8994827270508","longitude":"-3.29774808883667","service_numbers":["44","X44","45","N44"]},{"name":"Muir Wood Road","code":"36237527","latitude":"55.9004287719727","longitude":"-3.29434108734131","service_numbers":["44","44A","X44","45","N44"]},{"name":"Nether Currie Ro","code":"36237528","latitude":"55.8991241455078","longitude":"-3.2986159324646","service_numbers":["44","44A","X44","45","N44"]},{"name":"Bryce Road","code":"36237529","latitude":"55.8977966308594","longitude":"-3.3026340007782","service_numbers":["44","X44","45","N44"]},{"name":"Bryce Road","code":"36237532","latitude":"55.8974952697754","longitude":"-3.30307102203369","service_numbers":["44","44A","X44","45","N44"]},{"name":"Weaversknowe Cre","code":"36237534","latitude":"55.9008483886719","longitude":"-3.30983710289001","service_numbers":["25","45"]},{"name":"Power Station","code":"36237535","latitude":"55.9012222290039","longitude":"-3.31016993522644","service_numbers":["45"]},{"name":"Weaversknowe Cre","code":"36237536","latitude":"55.898754119873","longitude":"-3.3132529258728","service_numbers":["25","45"]},{"name":"Weaversknowe Cre","code":"36237537","latitude":"55.8987503051758","longitude":"-3.31355690956116","service_numbers":["45"]},{"name":"Curriehill Road","code":"36237563","latitude":"55.8968353271484","longitude":"-3.30605602264404","service_numbers":["44","44A","X44","45","N44"]},{"name":"Merchiston Castl","code":"36237685","latitude":"55.9088592529297","longitude":"-3.25137996673584","service_numbers":["10","18","45"]},{"name":"Merchiston Cstl","code":"36237686","latitude":"55.9100303649902","longitude":"-3.2501060962677","service_numbers":["10","18","45"]},{"name":"Redford Barracks","code":"36237687","latitude":"55.9113464355469","longitude":"-3.24792504310608","service_numbers":["10","18","45"]},{"name":"Redford Barracks","code":"36237689","latitude":"55.9118843078613","longitude":"-3.24715805053711","service_numbers":["10","18","45"]},{"name":"Elliot Road","code":"36237692","latitude":"55.913272857666","longitude":"-3.24413108825684","service_numbers":["10","18","45"]},{"name":"Elliot Road","code":"36237693","latitude":"55.9139099121094","longitude":"-3.24322295188904","service_numbers":["10","18","45"]},{"name":"Elliot Place","code":"36237838","latitude":"55.914966583252","longitude":"-3.24108099937439","service_numbers":["10","18","45"]},{"name":"National Museum","code":"36239432","latitude":"55.9472007751465","longitude":"-3.19064497947693","service_numbers":["35","45"]},{"name":"George Watsons","code":"36239494","latitude":"55.9314804077148","longitude":"-3.21801400184631","service_numbers":["45"]},{"name":"Perdrixknowe","code":"36239525","latitude":"55.9255676269531","longitude":"-3.23425006866455","service_numbers":["10","27","45"]},{"name":"Craiglockhart Pa","code":"36239528","latitude":"55.9175491333008","longitude":"-3.24162697792053","service_numbers":["4","10","27","45"]},{"name":"Glenlockhart Val","code":"36239536","latitude":"55.9210968017578","longitude":"-3.23919606208801","service_numbers":["10","27","45"]},{"name":"Glenlockhart Val","code":"36239538","latitude":"55.9213638305664","longitude":"-3.23862910270691","service_numbers":["10","27","45"]},{"name":"Craiglockhart Ca","code":"36239545","latitude":"55.9191932678223","longitude":"-3.24091196060181","service_numbers":["4","10","27","45"]},{"name":"Craiglockhart Sp","code":"36239547","latitude":"55.923999786377","longitude":"-3.2363760471344","service_numbers":["10","27","45"]},{"name":"Craiglockhart Sp","code":"36239562","latitude":"55.9229850769043","longitude":"-3.23703193664551","service_numbers":["10","27","45"]},{"name":"Perdrixknowe","code":"36239565","latitude":"55.9258232116699","longitude":"-3.23371410369873","service_numbers":["10","27","45"]},{"name":"Polwarth Terrace","code":"36239569","latitude":"55.9287300109863","longitude":"-3.22806000709534","service_numbers":["10","27","45"]},{"name":"Grays Loan","code":"36239575","latitude":"55.9296646118164","longitude":"-3.22440791130066","service_numbers":["45"]},{"name":"Meggetland Terra","code":"36239579","latitude":"55.9279899597168","longitude":"-3.22990894317627","service_numbers":["10","27","45"]},{"name":"George Watsons","code":"36239584","latitude":"55.9315223693848","longitude":"-3.21729588508606","service_numbers":["45"]},{"name":"Napier Universit","code":"36239589","latitude":"55.9337539672852","longitude":"-3.21152305603027","service_numbers":["45"]},{"name":"Napier Universit","code":"36239595","latitude":"55.9334983825684","longitude":"-3.21185088157654","service_numbers":["45"]},{"name":"Gillsland Road","code":"36239597","latitude":"55.9310607910156","longitude":"-3.21958589553833","service_numbers":["45"]},{"name":"Firrhill High Sc","code":"36239624","latitude":"55.9156036376953","longitude":"-3.24031710624695","service_numbers":["4","10","27","45"]},{"name":"Craiglockhart Ca","code":"36239632","latitude":"55.9189643859863","longitude":"-3.24133706092834","service_numbers":["4","10","27","45"]},{"name":"Meggetland Terra","code":"36239637","latitude":"55.9275016784668","longitude":"-3.23122191429138","service_numbers":["10","27","45"]},{"name":"Craiglockhart Ro","code":"36239639","latitude":"55.9159126281738","longitude":"-3.24075889587402","service_numbers":["4","10","27","45"]},{"name":"Grays Loan","code":"36239646","latitude":"55.9301452636719","longitude":"-3.22311091423035","service_numbers":["45"]},{"name":"Craiglockhart Pa","code":"36239654","latitude":"55.9172859191895","longitude":"-3.2418909072876","service_numbers":["4","10","27","45"]},{"name":"Gillsland Road","code":"36239676","latitude":"55.9306259155273","longitude":"-3.22078895568848","service_numbers":["45"]},{"name":"Polwarth Terrace","code":"36239686","latitude":"55.929313659668","longitude":"-3.22620606422424","service_numbers":["45"]},{"name":"Curriehill","code":"36242659","latitude":"55.8961448669434","longitude":"-3.31004691123962","service_numbers":["44","44A","X44","45","N44"]},{"name":"St James Hotel","code":"36242687","latitude":"55.9543266296387","longitude":"-3.18782091140747","service_numbers":["1","4","5","15","19","26","34","44","45"]},{"name":"JUNIPER GREEN","code":"36242693","latitude":"55.9019432067871","longitude":"-3.28932094573975","service_numbers":["44","X44","45","N44"]},{"name":"Omni Centre","code":"36242697","latitude":"55.9556503295898","longitude":"-3.18657994270325","service_numbers":["5","7","8","14","30","47","45","49","N3","N30","N31","N37"]},{"name":"South Bridge","code":"36243274","latitude":"55.9491233825684","longitude":"-3.18718099594116","service_numbers":["5","7","8","14","35","45","49","CS1"]},{"name":"Riccarton Arms H","code":"36245236","latitude":"55.8964805603027","longitude":"-3.3090341091156","service_numbers":["44","X44","45","N44"]},{"name":"Tollcross","code":"36245269","latitude":"55.9428596496582","longitude":"-3.20378494262695","service_numbers":["10","11","15","15A","16","23","27","45","N16"]},{"name":"Hermiston P&R (t","code":"36246365","latitude":"55.9172515869141","longitude":"-3.31443905830383","service_numbers":["25","X25","34","45","N25","N34"]},{"name":"Hermiston P&R (t","code":"36246389","latitude":"55.9170188903809","longitude":"-3.31435108184814","service_numbers":["25","X25","34","45","N25","N34"]},{"name":"HW Science Park","code":"36246836","latitude":"55.9128799438477","longitude":"-3.32316994667053","service_numbers":["34","45"]},{"name":"Heriot Watt Rese","code":"36246872","latitude":"55.9150733947754","longitude":"-3.32319688796997","service_numbers":["34","45"]},{"name":"HW Science Park","code":"36246945","latitude":"55.9129676818848","longitude":"-3.32334899902344","service_numbers":["34","45"]},{"name":"Heriot Watt Rese","code":"36246974","latitude":"55.9149589538574","longitude":"-3.32290506362915","service_numbers":["34","45"]},{"name":"Sheriff Court","code":"36247262","latitude":"55.947437286377","longitude":"-3.19047594070435","service_numbers":["35","45","CS1"]},{"name":"Garden Centre","code":"36253565","latitude":"55.9037590026855","longitude":"-3.3113911151886","service_numbers":["45"]},{"name":"Garden Centre","code":"36253567","latitude":"55.9031562805176","longitude":"-3.31084299087524","service_numbers":["25","45"]},{"name":"Maitland Park","code":"58232764","latitude":"55.9451751708984","longitude":"-3.07271599769592","service_numbers":["26","40","44","44A","45","113","N26","N44"]},{"name":"Edinburgh Road","code":"58232765","latitude":"55.9456367492676","longitude":"-3.07660388946533","service_numbers":["26","40","44","44A","45","113","N26","N44"]},{"name":"Edinburgh Road","code":"58232767","latitude":"55.9456977844238","longitude":"-3.07564496994019","service_numbers":["26","40","44","45","113","N26","N44"]},{"name":"Maitland Park","code":"58232768","latitude":"55.9452590942383","longitude":"-3.0725109577179","service_numbers":["26","40","44","45","113","N26","N44"]},{"name":"Denholm Drive","code":"58232828","latitude":"55.9343872070312","longitude":"-3.07134604454041","service_numbers":["30","45","N30"]},{"name":"Clayknowes Court","code":"58232829","latitude":"55.9353446960449","longitude":"-3.07289290428162","service_numbers":["30","45","N30"]},{"name":"Clayknowes Avenu","code":"58232832","latitude":"55.9371185302734","longitude":"-3.073646068573","service_numbers":["30","45","N30"]},{"name":"Stoneyhill Drive","code":"58232835","latitude":"55.9400672912598","longitude":"-3.07308793067932","service_numbers":["30","45","N30"]},{"name":"Stoneyhill Drive","code":"58232836","latitude":"55.9397735595703","longitude":"-3.07312798500061","service_numbers":["30","45","N30"]},{"name":"Clayknowes Way","code":"58232837","latitude":"55.9380989074707","longitude":"-3.07247304916382","service_numbers":["30","45","N30"]},{"name":"Clayknowes Avenu","code":"58232838","latitude":"55.9372177124023","longitude":"-3.07336091995239","service_numbers":["30","45","N30"]},{"name":"Clayknowes Court","code":"58232839","latitude":"55.9350204467773","longitude":"-3.07181191444397","service_numbers":["30","45","N30"]},{"name":"Denholm Drive","code":"58232842","latitude":"55.9339447021484","longitude":"-3.07056498527527","service_numbers":["30","45","N30"]},{"name":"Newhailes Road","code":"58232857","latitude":"55.9408531188965","longitude":"-3.07192397117615","service_numbers":["45"]},{"name":"Newhailes Road","code":"58232862","latitude":"55.940803527832","longitude":"-3.07225894927979","service_numbers":["45"]},{"name":"Dunedin House","code":"58232874","latitude":"55.9430961608887","longitude":"-3.06803202629089","service_numbers":["30","40","45","N30"]},{"name":"Newhailes Road","code":"58232875","latitude":"55.9437103271484","longitude":"-3.06779193878174","service_numbers":["30","40","45","N30"]},{"name":"Queen Margaret U","code":"58234835","latitude":"55.9326095581055","longitude":"-3.07344198226929","service_numbers":["30","45","N30"]},{"name":"Queen Margaret U","code":"58234836","latitude":"55.9326591491699","longitude":"-3.07353901863098","service_numbers":["30","45","N30"]}];