var Stops = Stops || {};Stops['29'] = [{"name":"Silverknowes Cre","code":"36232521","latitude":"55.9675407409668","longitude":"-3.26849389076233","service_numbers":["29","N37"]},{"name":"Scott Monument","code":"36232525","latitude":"55.9523887634277","longitude":"-3.19423198699951","service_numbers":["19","29","37","42","113"]},{"name":"Elm Row","code":"36232574","latitude":"55.9588508605957","longitude":"-3.18376302719116","service_numbers":["10","11","12","15","16","22","25","29","31","37","N11","N22"]},{"name":"Elm Row","code":"36232575","latitude":"55.9585876464844","longitude":"-3.18394708633423","service_numbers":["7","14","29","31","37","47","49","MA1"]},{"name":"Ferry Road Drive","code":"36232743","latitude":"55.9678649902344","longitude":"-3.24187707901001","service_numbers":["21","27","29","37","N37"]},{"name":"Drylaw Police St","code":"36232745","latitude":"55.9673881530762","longitude":"-3.24657201766968","service_numbers":["21","27","29","37","N37"]},{"name":"Muirhouse Green","code":"36232746","latitude":"55.9662437438965","longitude":"-3.25573110580444","service_numbers":["21","29","42"]},{"name":"Drylaw Police St","code":"36232747","latitude":"55.9674530029297","longitude":"-3.24735903739929","service_numbers":["21","27","29","37","N37"]},{"name":"Wester Drylaw","code":"36232748","latitude":"55.9669876098633","longitude":"-3.25139689445496","service_numbers":["21","29","42","N37"]},{"name":"Wester Drylaw","code":"36232749","latitude":"55.9666213989258","longitude":"-3.25295495986938","service_numbers":["21","29","42"]},{"name":"Muirhouse Green","code":"36232752","latitude":"55.9664726257324","longitude":"-3.25514602661133","service_numbers":["21","29","42","N37"]},{"name":"Silverknowes Vie","code":"36232753","latitude":"55.9660263061523","longitude":"-3.26032209396362","service_numbers":["21","29","42","N37"]},{"name":"Silverknowes Neu","code":"36232754","latitude":"55.9658584594727","longitude":"-3.26089310646057","service_numbers":["21","29","42"]},{"name":"Silverknowes Roa","code":"36232756","latitude":"55.9661979675293","longitude":"-3.26447701454163","service_numbers":["29","N37"]},{"name":"Silverknowes Roa","code":"36232757","latitude":"55.9661827087402","longitude":"-3.26503705978394","service_numbers":["29"]},{"name":"Silverknowes Cou","code":"36232758","latitude":"55.9665832519531","longitude":"-3.26649188995361","service_numbers":["29","N37"]},{"name":"Silverknowes Mid","code":"36232759","latitude":"55.9669456481934","longitude":"-3.26796197891235","service_numbers":["29"]},{"name":"Silverknowes Par","code":"36232762","latitude":"55.9713973999023","longitude":"-3.27193689346313","service_numbers":["29","N37"]},{"name":"Silverknowes","code":"36232764","latitude":"55.9692420959473","longitude":"-3.2700719833374","service_numbers":["29","X29","N37"]},{"name":"Silverknowes Cou","code":"36232765","latitude":"55.969425201416","longitude":"-3.27055907249451","service_numbers":["29"]},{"name":"Ferry Road Drive","code":"36232829","latitude":"55.9679183959961","longitude":"-3.24296808242798","service_numbers":["21","27","29","37","N37"]},{"name":"Pennywell Cottag","code":"36232839","latitude":"55.9754180908203","longitude":"-3.25291895866394","service_numbers":["8","14","16","24","29","X29","32"]},{"name":"Crewe Toll (Crew","code":"36232849","latitude":"55.9677429199219","longitude":"-3.23548007011414","service_numbers":["19","24","29","X29","37","47","X37","38","N37"]},{"name":"Grigor Avenue","code":"36232852","latitude":"55.9664726257324","longitude":"-3.23473501205444","service_numbers":["19","24","29","X29","37","47","X37","38","N37"]},{"name":"Comely Bank Ceme","code":"36232868","latitude":"55.9600563049316","longitude":"-3.22842693328857","service_numbers":["19","24","29","X29","37","47","X37","38","113","N37"]},{"name":"Comely Bank Ceme","code":"36232869","latitude":"55.9601936340332","longitude":"-3.22839903831482","service_numbers":["19","24","29","X29","37","47","X37","38","113","N37"]},{"name":"Western General","code":"36232872","latitude":"55.961540222168","longitude":"-3.23017191886902","service_numbers":["19","24","29","X29","37","47","X37","38","113","N37"]},{"name":"Western General","code":"36232873","latitude":"55.9619178771973","longitude":"-3.23098492622375","service_numbers":["19","24","29","X29","37","47","X37","38","113","N37"]},{"name":"North Werber Par","code":"36232874","latitude":"55.9650115966797","longitude":"-3.23362994194031","service_numbers":["19","24","29","X29","37","47","X37","38","N37"]},{"name":"North Werber Pla","code":"36232875","latitude":"55.9656295776367","longitude":"-3.23384189605713","service_numbers":["19","24","29","X29","37","47","X37","38","N37"]},{"name":"Davidson Road","code":"36232876","latitude":"55.9634056091309","longitude":"-3.23247408866882","service_numbers":["19","24","29","X29","37","47","X37","N37"]},{"name":"West Woods","code":"36232878","latitude":"55.963996887207","longitude":"-3.23258900642395","service_numbers":["19","24","29","X29","37","47","X37","38","N37"]},{"name":"St James Centre","code":"36234749","latitude":"55.9539756774902","longitude":"-3.18806600570679","service_numbers":["5","7","8","14","29","30","47","45","49","N3","N30","N31","N37"]},{"name":"North Bridge","code":"36234753","latitude":"55.9518356323242","longitude":"-3.18820905685425","service_numbers":["3","5","8","29","X29","45","N3"]},{"name":"South Bridge","code":"36234756","latitude":"55.9490432739258","longitude":"-3.18681001663208","service_numbers":["3","5","8","14","29","X29","30","33","35","45","49","N3","N30"]},{"name":"Hill Place","code":"36234758","latitude":"55.9458045959473","longitude":"-3.18464493751526","service_numbers":["2","3","5","8","14","29","X29","30","33","49","N3","N30"]},{"name":"East Preston Str","code":"36234784","latitude":"55.9387664794922","longitude":"-3.1790189743042","service_numbers":["3","5","7","8","29","X29","31","X31","37","47","X37","49","N3","N31","N37"]},{"name":"Salisbury Place","code":"36234786","latitude":"55.9377403259277","longitude":"-3.17834806442261","service_numbers":["3","5","7","8","29","X29","31","X31","37","47","X37","49","N3","N31","N37"]},{"name":"St Patrick Squar","code":"36234796","latitude":"55.9431343078613","longitude":"-3.18297910690308","service_numbers":["2","3","5","8","29","X29","30","33","49","N3","N30"]},{"name":"Queens Hall","code":"36234798","latitude":"55.9414138793945","longitude":"-3.18124508857727","service_numbers":["2","3","5","8","29","X29","30","33","49","N3","N30"]},{"name":"Salisbury Road","code":"36234837","latitude":"55.9371299743652","longitude":"-3.17752909660339","service_numbers":["3","7","8","29","X29","31","X31","37","47","X37","49","N3","N31","N37"]},{"name":"Mayfield Terrace","code":"36234838","latitude":"55.9349327087402","longitude":"-3.17526888847351","service_numbers":["3","7","8","29","31","37","47","49","N3","N31","N37"]},{"name":"Peel Terrace","code":"36234839","latitude":"55.9328117370605","longitude":"-3.17307591438293","service_numbers":["3","7","8","29","31","37","47","49","N3","N31","N37"]},{"name":"Crawfurd Road","code":"36234842","latitude":"55.9308547973633","longitude":"-3.17109608650208","service_numbers":["3","7","8","29","31","37","47","49","N3","N31","N37"]},{"name":"East Suffolk Roa","code":"36234843","latitude":"55.9289855957031","longitude":"-3.16919898986816","service_numbers":["3","7","8","29","31","37","47","49","N3","N31","N37"]},{"name":"Lady Road","code":"36234845","latitude":"55.9269218444824","longitude":"-3.167151927948","service_numbers":["3","7","8","29","31","37","47","49","N3","N31","N37"]},{"name":"Lygon Road","code":"36234847","latitude":"55.9270248413086","longitude":"-3.16745901107788","service_numbers":["3","7","8","29","31","37","47","49","N3","N31","N37"]},{"name":"Suffolk Road","code":"36234848","latitude":"55.9287605285645","longitude":"-3.16927194595337","service_numbers":["3","7","8","29","31","37","47","49","N3","N31","N37"]},{"name":"East Savile Road","code":"36234849","latitude":"55.9306755065918","longitude":"-3.17125105857849","service_numbers":["3","7","8","29","31","37","47","49","N3","N31","N37"]},{"name":"West Mayfield","code":"36234852","latitude":"55.9334754943848","longitude":"-3.17413592338562","service_numbers":["3","7","8","29","31","37","47","49","N3","N31","N37"]},{"name":"Middleby Street","code":"36234853","latitude":"55.9346809387207","longitude":"-3.17529296875","service_numbers":["3","7","8","29","31","37","47","49","N3","N31","N37"]},{"name":"Duncan Street","code":"36234854","latitude":"55.9359245300293","longitude":"-3.17653203010559","service_numbers":["3","7","8","29","31","37","47","49","N3","N31","N37"]},{"name":"Montague Street","code":"36234856","latitude":"55.9416694641113","longitude":"-3.18174910545349","service_numbers":["2","3","5","7","8","29","X29","30","31","X31","33","37","47","X37","49","N3","N30","N31","N37"]},{"name":"St Patrick Squar","code":"36234857","latitude":"55.9433174133301","longitude":"-3.18332099914551","service_numbers":["2","3","5","7","8","29","X29","30","31","X31","33","37","47","X37","49","N3","N30","N31","N37"]},{"name":"Glenallan Drive","code":"36234965","latitude":"55.921142578125","longitude":"-3.16065692901611","service_numbers":["3","8","29","N3"]},{"name":"Walter Scott Ave","code":"36234967","latitude":"55.9189147949219","longitude":"-3.15579104423523","service_numbers":["3","8","29","N3"]},{"name":"Claverhouse Driv","code":"36234968","latitude":"55.9177322387695","longitude":"-3.15332293510437","service_numbers":["3","8","29","N3"]},{"name":"Robins Nest","code":"36234969","latitude":"55.9148788452148","longitude":"-3.14898300170898","service_numbers":["3","8","29","N3"]},{"name":"Moredun Institut","code":"36234983","latitude":"55.9116897583008","longitude":"-3.14228105545044","service_numbers":["3","18","29","N3"]},{"name":"Erskine Home","code":"36234985","latitude":"55.9103012084961","longitude":"-3.14007997512817","service_numbers":["3","18","29","N3"]},{"name":"Gilmerton Road","code":"36234986","latitude":"55.9087677001953","longitude":"-3.13686800003052","service_numbers":["3","18","29","N3"]},{"name":"Gilmerton","code":"36234987","latitude":"55.9063949584961","longitude":"-3.13379096984863","service_numbers":["3","18","29","X29","N3"]},{"name":"Candlemakers Par","code":"36234989","latitude":"55.9042358398438","longitude":"-3.12740993499756","service_numbers":["3","29","X29","N3"]},{"name":"Gilmerton Statio","code":"36235232","latitude":"55.9030609130859","longitude":"-3.12387299537659","service_numbers":["3","29","X29","N3"]},{"name":"Melville Grange","code":"36235234","latitude":"55.8998184204102","longitude":"-3.11298298835754","service_numbers":["3","29","X29","N3"]},{"name":"Drum Street","code":"36235235","latitude":"55.9043426513672","longitude":"-3.12848496437073","service_numbers":["3","29","X29","N3"]},{"name":"Gilmerton","code":"36235236","latitude":"55.905330657959","longitude":"-3.13233590126038","service_numbers":["3","29","X29","N3"]},{"name":"Gilmerton","code":"36235237","latitude":"55.9072113037109","longitude":"-3.13493490219116","service_numbers":["3","18","29","X29","N3"]},{"name":"Moredunvale Road","code":"36235238","latitude":"55.9085884094238","longitude":"-3.13683104515076","service_numbers":["3","18","29","N3"]},{"name":"Moredunvale Loan","code":"36235239","latitude":"55.909854888916","longitude":"-3.13960289955139","service_numbers":["3","18","29","N3"]},{"name":"Moredun Institut","code":"36235242","latitude":"55.912166595459","longitude":"-3.14415097236633","service_numbers":["3","8","18","29","N3"]},{"name":"Ellens Glen Road","code":"36235243","latitude":"55.9132385253906","longitude":"-3.14666199684143","service_numbers":["3","8","29","N3"]},{"name":"Robins Nest","code":"36235245","latitude":"55.9151077270508","longitude":"-3.14970898628235","service_numbers":["3","8","29","N3"]},{"name":"Mount Vernon Roa","code":"36235246","latitude":"55.9173698425293","longitude":"-3.15292811393738","service_numbers":["3","8","29","N3"]},{"name":"Walter Scott Ave","code":"36235247","latitude":"55.9187164306641","longitude":"-3.15567302703857","service_numbers":["3","8","29","N3"]},{"name":"Ivanhoe Crescent","code":"36235248","latitude":"55.9195709228516","longitude":"-3.15761804580688","service_numbers":["3","8","29","N3"]},{"name":"Double Hedges Ro","code":"36235249","latitude":"55.9211654663086","longitude":"-3.16092991828918","service_numbers":["3","8","29","N3"]},{"name":"Orrock Park","code":"36235252","latitude":"55.9230842590332","longitude":"-3.16433191299438","service_numbers":["3","8","29","N3"]},{"name":"Nether Liberton","code":"36235253","latitude":"55.9240341186523","longitude":"-3.16634488105774","service_numbers":["3","8","29","N3"]},{"name":"Flora Stevenson","code":"36235474","latitude":"55.9588165283203","longitude":"-3.22496008872986","service_numbers":["24","29","X29","42"]},{"name":"Learmonth Grove","code":"36235475","latitude":"55.959300994873","longitude":"-3.22145104408264","service_numbers":["24","29","X29","42"]},{"name":"Flora Stevenson","code":"36235476","latitude":"55.9587326049805","longitude":"-3.2244770526886","service_numbers":["24","29","X29","42"]},{"name":"Learmonth Grove","code":"36235478","latitude":"55.9592971801758","longitude":"-3.22074604034424","service_numbers":["24","29","X29","42"]},{"name":"Cheyne Street","code":"36235479","latitude":"55.9592208862305","longitude":"-3.2129909992218","service_numbers":["24","29","X29","42"]},{"name":"Raeburn Place","code":"36235482","latitude":"55.958984375","longitude":"-3.21147799491882","service_numbers":["24","29","X29","42"]},{"name":"Raeburn Place","code":"36235483","latitude":"55.9590454101562","longitude":"-3.21096706390381","service_numbers":["24","29","X29","42"]},{"name":"Kerr Street","code":"36235484","latitude":"55.9576835632324","longitude":"-3.20789694786072","service_numbers":["24","29","X29","42"]},{"name":"Kerr Street","code":"36235485","latitude":"55.957389831543","longitude":"-3.20739197731018","service_numbers":["24","29","X29","42"]},{"name":"Circus Place","code":"36235486","latitude":"55.9572067260742","longitude":"-3.20578408241272","service_numbers":["24","29","X29","42"]},{"name":"Royal Circus","code":"36235487","latitude":"55.9571189880371","longitude":"-3.20393896102905","service_numbers":["24","29","X29","42"]},{"name":"Circus Place","code":"36235489","latitude":"55.9569549560547","longitude":"-3.20423889160156","service_numbers":["24","29","X29","42"]},{"name":"Dean Park Street","code":"36235694","latitude":"55.9594879150391","longitude":"-3.21621894836426","service_numbers":["24","29","X29","42"]},{"name":"Dean Park Street","code":"36235695","latitude":"55.9593391418457","longitude":"-3.21574997901917","service_numbers":["24","29","X29","42"]},{"name":"South Bridge","code":"36235878","latitude":"55.949390411377","longitude":"-3.18726897239685","service_numbers":["3","8","29","X29","30","31","X31","33","37","47","X37","N3","N30","N31","N37"]},{"name":"North Bridge","code":"36235892","latitude":"55.9521789550781","longitude":"-3.18868398666382","service_numbers":["3","29","X29","30","31","X31","33","37","47","X37","N3","N30","N31","N37"]},{"name":"Elm Row","code":"36235979","latitude":"55.9588928222656","longitude":"-3.18411588668823","service_numbers":["7","10","11","12","14","16","22","25","26","29","31","33","37","47","42","44","49","N11","N22","N34","N44"]},{"name":"Lutton Place","code":"36236562","latitude":"55.9404678344727","longitude":"-3.18073606491089","service_numbers":["2","3","5","7","8","29","X29","30","31","X31","33","37","47","X37","49","N3","N30","N31","N37"]},{"name":"Surgeons Hall","code":"36236563","latitude":"55.9457740783691","longitude":"-3.18491697311401","service_numbers":["3","5","7","8","14","29","X29","30","31","X31","33","37","47","X37","49","N3","N30","N31","N37"]},{"name":"Rose Street","code":"36237254","latitude":"55.9524993896484","longitude":"-3.20025706291199","service_numbers":["19","24","29","X29","37","X37","42","113","N37"]},{"name":"Rose Street","code":"36237256","latitude":"55.9524955749512","longitude":"-3.19993591308594","service_numbers":["19","24","29","X29","36","37","X37","41","42","113","N37"]},{"name":"Lady Road","code":"36237843","latitude":"55.9258193969727","longitude":"-3.16686296463013","service_numbers":["3","7","8","29","X29","31","37","47","X37","N3","N31","N37"]},{"name":"Lady Road","code":"36237845","latitude":"55.9258728027344","longitude":"-3.16665601730347","service_numbers":["3","7","8","29","X29","31","37","47","X37","N3","N31","N37"]},{"name":"opp Fire Station","code":"36238424","latitude":"55.9684829711914","longitude":"-3.23763394355774","service_numbers":["21","27","29","37","N37"]},{"name":"Hill Street","code":"36238427","latitude":"55.9538650512695","longitude":"-3.20110011100769","service_numbers":["24","29","X29","42"]},{"name":"Moredun Park Roa","code":"36238429","latitude":"55.9130592346191","longitude":"-3.14582490921021","service_numbers":["3","29","N3"]},{"name":"Gilmerton Statio","code":"36238432","latitude":"55.9028015136719","longitude":"-3.12408900260925","service_numbers":["3","29","X29","N3"]},{"name":"Drum Street","code":"36238434","latitude":"55.905086517334","longitude":"-3.13137006759644","service_numbers":["3","29","X29","N3"]},{"name":"City bypass","code":"36238435","latitude":"55.9001502990723","longitude":"-3.11393690109253","service_numbers":["3","29","X29","N3"]},{"name":"Nicolson Square","code":"36238637","latitude":"55.9457550048828","longitude":"-3.18579697608948","service_numbers":["2","8","29","37","47"]},{"name":"silverknowes Cre","code":"36238753","latitude":"55.9682846069336","longitude":"-3.26962399482727","service_numbers":["29"]},{"name":"Liberton Road","code":"36242362","latitude":"55.924072265625","longitude":"-3.16615390777588","service_numbers":["3","8","29","N3"]},{"name":"Orrock Park","code":"36242368","latitude":"55.9233169555664","longitude":"-3.16454696655273","service_numbers":["3","8","29","N3"]},{"name":"Northumberland S","code":"36242594","latitude":"55.9565696716309","longitude":"-3.20228910446167","service_numbers":["24","29","X29","42"]},{"name":"Howe Street","code":"36242643","latitude":"55.9563598632812","longitude":"-3.20249009132385","service_numbers":["24","29","X29","42"]},{"name":"Scott Monument","code":"36243246","latitude":"55.9523963928223","longitude":"-3.19530510902405","service_numbers":["3","29","X29","30","33"]},{"name":"Queen St Gardens","code":"36245697","latitude":"55.9551544189453","longitude":"-3.20152401924133","service_numbers":["24","29","X29","42","ET1"]},{"name":"Crewe Toll Fire","code":"36248437","latitude":"55.9682769775391","longitude":"-3.23756408691406","service_numbers":["21","27","29","37","N37"]},{"name":"Powdermill Brae","code":"64323249","latitude":"55.8366355895996","longitude":"-3.04706811904907","service_numbers":["29","X29","33","N3"]},{"name":"Powdermill Brae","code":"64323254","latitude":"55.8389778137207","longitude":"-3.0463330745697","service_numbers":["29","X29","33","N3"]},{"name":"Powdermill Brae","code":"64323256","latitude":"55.8376388549805","longitude":"-3.04517889022827","service_numbers":["29","X29","33","N3"]},{"name":"Powdermill Brae","code":"64323257","latitude":"55.8371925354004","longitude":"-3.04500699043274","service_numbers":["3","29","X29","33","N3"]},{"name":"Powdermill Brae","code":"64323258","latitude":"55.8386192321777","longitude":"-3.04632306098938","service_numbers":["3","29","X29","33","N3"]},{"name":"Birkenside termi","code":"64323259","latitude":"55.8355712890625","longitude":"-3.04648089408875","service_numbers":["3","29","X29","33","N3"]},{"name":"Dalhousie Rd at","code":"64323271","latitude":"55.8700218200684","longitude":"-3.07043600082397","service_numbers":["29","X29","39"]},{"name":"Dobbies Garden C","code":"64323484","latitude":"55.8968505859375","longitude":"-3.10120797157288","service_numbers":["3","29","X29","N3"]},{"name":"Dobbies Garden C","code":"64323485","latitude":"55.8968238830566","longitude":"-3.10018396377563","service_numbers":["3","29","X29","N3"]},{"name":"Barleyknowe Cres","code":"64323674","latitude":"55.8505897521973","longitude":"-3.05463099479675","service_numbers":["29","X29","33","39","N3"]},{"name":"Arniston Engine","code":"64323678","latitude":"55.848274230957","longitude":"-3.05426502227783","service_numbers":["29","X29","33","N3"]},{"name":"Arniston Engine","code":"64323679","latitude":"55.8477630615234","longitude":"-3.05402803421021","service_numbers":["3","29","X29","33","N3"]},{"name":"Gore Avenue to B","code":"64323681","latitude":"55.8461761474609","longitude":"-3.04603099822998","service_numbers":["29","X29","33","N3"]},{"name":"Gore Avenue to E","code":"64323682","latitude":"55.8461685180664","longitude":"-3.04604697227478","service_numbers":["3","29","X29","33","39"]},{"name":"Gorebridge Inn","code":"64323683","latitude":"55.8421249389648","longitude":"-3.04728007316589","service_numbers":["29","X29","33","39","N3"]},{"name":"Gorebride Inn","code":"64323684","latitude":"55.8421401977539","longitude":"-3.04750394821167","service_numbers":["3","29","X29","33","39","N3"]},{"name":"Greenhall Cresce","code":"64323685","latitude":"55.8492317199707","longitude":"-3.05555295944214","service_numbers":["29","X29","33","39","N3"]},{"name":"Greenhall Road","code":"64323687","latitude":"55.8516044616699","longitude":"-3.05457901954651","service_numbers":["3","29","X29","33","39","N3"]},{"name":"Hogarth Avenue","code":"64323689","latitude":"55.8524742126465","longitude":"-3.05356407165527","service_numbers":["29","X29","33","39","N3"]},{"name":"Newbyres Crescen","code":"64323691","latitude":"55.8444366455078","longitude":"-3.04887509346008","service_numbers":["29","X29","33","39","N3"]},{"name":"Leisure Centre","code":"64323692","latitude":"55.8447570800781","longitude":"-3.05028891563416","service_numbers":["3","29","X29","33","N3"]},{"name":"Leisure Centre","code":"64323693","latitude":"55.8450355529785","longitude":"-3.05028104782104","service_numbers":["29","X29","33","N3"]},{"name":"New Huntersfield","code":"64323695","latitude":"55.8490524291992","longitude":"-3.05559611320496","service_numbers":["3","29","X29","33","N3"]},{"name":"Newbyres Crescen","code":"64323698","latitude":"55.8444366455078","longitude":"-3.04887509346008","service_numbers":["3","29","X29","33"]},{"name":"Police Station","code":"64323725","latitude":"55.8432655334473","longitude":"-3.04810905456543","service_numbers":["29","X29","33","39","N3"]},{"name":"Gowkshill Farm","code":"64323729","latitude":"55.8557586669922","longitude":"-3.05517101287842","service_numbers":["29","X29","33","N3"]},{"name":"Gowkshill Farm C","code":"64323732","latitude":"55.8559684753418","longitude":"-3.05589604377747","service_numbers":["3","29","X29","33","N3"]},{"name":"The Crescent","code":"64323734","latitude":"55.857593536377","longitude":"-3.05621099472046","service_numbers":["29","X29","33","N3"]},{"name":"The Crescent","code":"64323735","latitude":"55.8580284118652","longitude":"-3.05659008026123","service_numbers":["3","29","X29","33","N3"]},{"name":"St Andrews PS","code":"64323736","latitude":"55.8534622192383","longitude":"-3.05376696586609","service_numbers":["3","29","X29","33","N3"]},{"name":"St Andrews Prima","code":"64323737","latitude":"55.8545532226562","longitude":"-3.05413198471069","service_numbers":["29","X29","33","N3"]},{"name":"Blackcot","code":"64323847","latitude":"55.8710479736328","longitude":"-3.04735493659973","service_numbers":["29","33","N3"]},{"name":"Blackcot","code":"64323848","latitude":"55.8707122802734","longitude":"-3.04776096343994","service_numbers":["3","29","33","N3"]},{"name":"Blackcot Avenue","code":"64323849","latitude":"55.8684272766113","longitude":"-3.04920196533203","service_numbers":["29","33","N3"]},{"name":"Blackcot Avenue","code":"64323852","latitude":"55.8687896728516","longitude":"-3.0488920211792","service_numbers":["3","29","33","N3"]},{"name":"Elm Place","code":"64323853","latitude":"55.8729095458984","longitude":"-3.03957390785217","service_numbers":["3","29","33","N3"]},{"name":"Elm Place","code":"64323854","latitude":"55.8736839294434","longitude":"-3.0403618812561","service_numbers":["3","29","33","N3"]},{"name":"Finlay Place","code":"64323856","latitude":"55.8735275268555","longitude":"-3.03031992912292","service_numbers":["3","29"]},{"name":"Finlay Place","code":"64323857","latitude":"55.8735237121582","longitude":"-3.03095889091492","service_numbers":["3","29"]},{"name":"Hawthorn Centre","code":"64323859","latitude":"55.8769149780273","longitude":"-3.04399609565735","service_numbers":["3","29","33","N3"]},{"name":"Hawthorn Centre","code":"64323862","latitude":"55.877124786377","longitude":"-3.0447850227356","service_numbers":["3","29","33","N3"]},{"name":"Hill Place","code":"64323865","latitude":"55.8676223754883","longitude":"-3.03799390792847","service_numbers":["3","29"]},{"name":"Hughes Crescent","code":"64323867","latitude":"55.870662689209","longitude":"-3.02928495407104","service_numbers":["3","29"]},{"name":"Hughes Crescent","code":"64323868","latitude":"55.8708381652832","longitude":"-3.02944993972778","service_numbers":["3","29"]},{"name":"Cook Crescent","code":"64323869","latitude":"55.8661575317383","longitude":"-3.04099106788635","service_numbers":["3","18","29"]},{"name":"Larch Crescent","code":"64323872","latitude":"55.8725738525391","longitude":"-3.02832889556885","service_numbers":["3","29"]},{"name":"Mayfield Place","code":"64323873","latitude":"55.8748741149902","longitude":"-3.04122400283813","service_numbers":["3","29","33","N3"]},{"name":"Mayfield Place","code":"64323876","latitude":"55.8751373291016","longitude":"-3.04203104972839","service_numbers":["3","29","33","N3"]},{"name":"Oak Crescent","code":"64323878","latitude":"55.8731994628906","longitude":"-3.03510594367981","service_numbers":["3","29"]},{"name":"Oak Crescent","code":"64323879","latitude":"55.8728561401367","longitude":"-3.03541707992554","service_numbers":["3","29"]},{"name":"Oak Place","code":"64323892","latitude":"55.8690948486328","longitude":"-3.03403806686401","service_numbers":["3","29"]},{"name":"Mayfield roundab","code":"64323893","latitude":"55.8720092773438","longitude":"-3.03980493545532","service_numbers":["3","29","33","N3"]},{"name":"Suttieslea Place","code":"64323894","latitude":"55.8700942993164","longitude":"-3.05356192588806","service_numbers":["29","33","N3"]},{"name":"Suttieslea Place","code":"64323895","latitude":"55.8700103759766","longitude":"-3.0530800819397","service_numbers":["3","29","33","N3"]},{"name":"Westhouses Avenu","code":"64323898","latitude":"55.8680152893066","longitude":"-3.03416895866394","service_numbers":["3","29"]},{"name":"Westhouses Drive","code":"64323923","latitude":"55.8660087585449","longitude":"-3.03747200965881","service_numbers":["3","29"]},{"name":"Oak Place","code":"64323925","latitude":"55.869270324707","longitude":"-3.03420305252075","service_numbers":["3","29"]},{"name":"Buckie Road","code":"64323926","latitude":"55.8720207214355","longitude":"-3.03859090805054","service_numbers":["3","29"]},{"name":"Kings Gate","code":"64323947","latitude":"55.8749847412109","longitude":"-3.0805459022522","service_numbers":["29","X29","39"]},{"name":"Kings Gate","code":"64323948","latitude":"55.8747138977051","longitude":"-3.08069801330566","service_numbers":["29","X29","39"]},{"name":"Bryans","code":"64323964","latitude":"55.8716011047363","longitude":"-3.05615997314453","service_numbers":["29","33","N3"]},{"name":"Bryans Farm","code":"64323965","latitude":"55.8718681335449","longitude":"-3.05648708343506","service_numbers":["3","29","33","N3"]},{"name":"Bryans Avenue","code":"64323967","latitude":"55.8711166381836","longitude":"-3.06046199798584","service_numbers":["29","33","N3"]},{"name":"Bryans Avenue","code":"64323968","latitude":"55.8712997436523","longitude":"-3.05998706817627","service_numbers":["3","29","33","N3"]},{"name":"Dalhousie Road","code":"64323969","latitude":"55.8702354431152","longitude":"-3.07087302207947","service_numbers":["29","X29","39"]},{"name":"Dean Park Place","code":"64323972","latitude":"55.866569519043","longitude":"-3.06657004356384","service_numbers":["29","X29","33","39","N3"]},{"name":"Dean Park Place","code":"64323973","latitude":"55.8668365478516","longitude":"-3.06705689430237","service_numbers":["3","29","X29","33","39","N3"]},{"name":"Fourth Street","code":"64323974","latitude":"55.8649559020996","longitude":"-3.06620597839355","service_numbers":["29","X29","33","39","N3"]},{"name":"Dean Park Place","code":"64323975","latitude":"55.8652496337891","longitude":"-3.06645393371582","service_numbers":["3","29","X29","33","39","N3"]},{"name":"McGahey Court","code":"64323982","latitude":"55.860179901123","longitude":"-3.0622889995575","service_numbers":["29","X29","33","N3"]},{"name":"McGahey Court","code":"64323983","latitude":"55.8603057861328","longitude":"-3.06368207931519","service_numbers":["3","29","X29","33","N3"]},{"name":"Mining Museum","code":"64323984","latitude":"55.8612480163574","longitude":"-3.06490588188171","service_numbers":["29","X29","33","39","N3"]},{"name":"Mining Museum","code":"64323985","latitude":"55.8616714477539","longitude":"-3.06547689437866","service_numbers":["3","29","X29","33","39","N3"]},{"name":"Beechwood Park","code":"64323989","latitude":"55.8699493408203","longitude":"-3.06447291374207","service_numbers":["29","33","N3"]},{"name":"Park Road","code":"64324232","latitude":"55.8703880310059","longitude":"-3.06347799301147","service_numbers":["3","29","33","N3"]},{"name":"St Annes","code":"64324234","latitude":"55.867733001709","longitude":"-3.06724095344543","service_numbers":["29","X29","33","39","N3"]},{"name":"Station Road","code":"64324235","latitude":"55.8695182800293","longitude":"-3.06840896606445","service_numbers":["29","X29","33","39","N3"]},{"name":"Station Road","code":"64324236","latitude":"55.8691558837891","longitude":"-3.06871795654297","service_numbers":["3","29","X29","33","39","N3"]},{"name":"Tesco Hardengree","code":"64324571","latitude":"55.8825836181641","longitude":"-3.08507299423218","service_numbers":["29","39","40","49"]},{"name":"Tesco Hardengree","code":"64324572","latitude":"55.8824005126953","longitude":"-3.08506798744202","service_numbers":["29","39","40","49"]},{"name":"Lothianbridge","code":"64325743","latitude":"55.8712272644043","longitude":"-3.07339406013489","service_numbers":["29","X29","39"]},{"name":"Lothianbridge","code":"64325745","latitude":"55.8709602355957","longitude":"-3.07322692871094","service_numbers":["29","X29","39"]},{"name":"Police Station","code":"64325846","latitude":"55.8430862426758","longitude":"-3.04821610450745","service_numbers":["3","29","X29","33","39","N3"]},{"name":"Barleyknowe Cres","code":"64325847","latitude":"55.8505668640137","longitude":"-3.05488705635071","service_numbers":["3","29","X29","33","39","N3"]}];