var Stops = Stops || {};Stops['15A'] = [{"name":"Waverley Bridge","code":"36232494","latitude":"55.9516868591309","longitude":"-3.19158291816711","service_numbers":["1","15A","26","36","41","42","44"]},{"name":"St Cuthbert's Ch","code":"36232548","latitude":"55.9493637084961","longitude":"-3.20667695999146","service_numbers":["10","11","15","15A","16","24","47","CS1","N16"]},{"name":"Usher Hall","code":"36232549","latitude":"55.947151184082","longitude":"-3.20582389831543","service_numbers":["1","10","11","15","15A","16","24","34","47","N16","N34"]},{"name":"Fountainbridge","code":"36232562","latitude":"55.9453964233398","longitude":"-3.20519304275513","service_numbers":["10","11","15","15A","16","24","35","47","N16"]},{"name":"Tollcross","code":"36232564","latitude":"55.9426460266113","longitude":"-3.20345902442932","service_numbers":["11","15","15A","16","23","N16"]},{"name":"Leven Street","code":"36232565","latitude":"55.9413642883301","longitude":"-3.20340299606323","service_numbers":["11","15","15A","16","23","45","N16"]},{"name":"Whitehouse Loan","code":"36232567","latitude":"55.9389495849609","longitude":"-3.20478510856628","service_numbers":["11","15","15A","16","23","45","N16"]},{"name":"Holy Corner","code":"36232568","latitude":"55.9350433349609","longitude":"-3.21005797386169","service_numbers":["11","15","15A","16","23","45","N16"]},{"name":"Churchhill","code":"36232569","latitude":"55.9316940307617","longitude":"-3.20992207527161","service_numbers":["5","11","15","15A","16","23","N16"]},{"name":"Morningside Stat","code":"36232573","latitude":"55.9260215759277","longitude":"-3.209233045578","service_numbers":["5","11","15","15A","16","23","N16"]},{"name":"Caledonian Hotel","code":"36232692","latitude":"55.9492378234863","longitude":"-3.20689797401428","service_numbers":["1","4","10","11","15","15A","16","22","24","25","X25","X26","34","47","44","X44","N11","N16","N22","N31","N34","N44"]},{"name":"Usher Hall","code":"36235967","latitude":"55.9464874267578","longitude":"-3.20588397979736","service_numbers":["1","10","11","15","15A","16","24","34","47","N11","N16","N34"]},{"name":"Castle Street","code":"36235973","latitude":"55.9514045715332","longitude":"-3.20097589492798","service_numbers":["1","4","15","15A","26","X26","34","44","X44","N26","N34","N44"]},{"name":"Whitehouse Loan","code":"36236387","latitude":"55.9399223327637","longitude":"-3.20452690124512","service_numbers":["11","15","15A","16","23","45","N16"]},{"name":"Leven Street","code":"36236389","latitude":"55.9413795471191","longitude":"-3.20362710952759","service_numbers":["11","15","15A","16","23","45","N16"]},{"name":"Fountainbridge","code":"36236435","latitude":"55.9451179504395","longitude":"-3.20542502403259","service_numbers":["10","11","15","15A","16","24","47","N16"]},{"name":"Comiston Place","code":"36236963","latitude":"55.9234390258789","longitude":"-3.210608959198","service_numbers":["5","11","15","15A","16","N16"]},{"name":"Morningside Ceme","code":"36236965","latitude":"55.9224166870117","longitude":"-3.21100902557373","service_numbers":["5","11","15","15A","16","N16"]},{"name":"Sth Morningside","code":"36236967","latitude":"55.9212760925293","longitude":"-3.21185398101807","service_numbers":["5","11","15","15A","16","N16"]},{"name":"Braid Crescent","code":"36236968","latitude":"55.9208297729492","longitude":"-3.21188807487488","service_numbers":["5","11","15","15A","16","N16"]},{"name":"Greenbank Terrac","code":"36236969","latitude":"55.9198608398438","longitude":"-3.2126259803772","service_numbers":["5","11","15","15A","16","N16"]},{"name":"Braid Burn","code":"36236972","latitude":"55.918643951416","longitude":"-3.21289205551147","service_numbers":["11","15","15A"]},{"name":"Braid Hills Hote","code":"36236973","latitude":"55.9174995422363","longitude":"-3.21307992935181","service_numbers":["11","15","15A"]},{"name":"Braid Hills Hote","code":"36236974","latitude":"55.9172821044922","longitude":"-3.21334505081177","service_numbers":["11","15","15A"]},{"name":"Pentland Terrace","code":"36236975","latitude":"55.9153671264648","longitude":"-3.21336507797241","service_numbers":["11","15","15A"]},{"name":"Riselaw Place","code":"36236976","latitude":"55.9153938293457","longitude":"-3.21365404129028","service_numbers":["11","15","15A"]},{"name":"Pentland Terrace","code":"36236978","latitude":"55.9128608703613","longitude":"-3.21343088150024","service_numbers":["11","15","15A"]},{"name":"Riselaw Crescent","code":"36236979","latitude":"55.9129943847656","longitude":"-3.21372294425964","service_numbers":["11","15","15A"]},{"name":"Pentland Terrace","code":"36236982","latitude":"55.9112129211426","longitude":"-3.21203589439392","service_numbers":["11","15","15A"]},{"name":"Comiston Rise","code":"36236983","latitude":"55.910587310791","longitude":"-3.21158409118652","service_numbers":["11","15","15A"]},{"name":"Pentland Terrace","code":"36236984","latitude":"55.9092292785645","longitude":"-3.20983004570007","service_numbers":["11","15","15A"]},{"name":"Braid Road","code":"36236985","latitude":"55.9091644287109","longitude":"-3.21003603935242","service_numbers":["11","15","15A"]},{"name":"Buckstone Terrac","code":"36236986","latitude":"55.9068794250488","longitude":"-3.20834898948669","service_numbers":["11","15","15A"]},{"name":"Buckstone Terrac","code":"36236987","latitude":"55.9068260192871","longitude":"-3.20853900909424","service_numbers":["11","15","15A"]},{"name":"Caiystane Cresce","code":"36236989","latitude":"55.9042701721191","longitude":"-3.20716404914856","service_numbers":["11","15","15A"]},{"name":"Buckstone Terrac","code":"36237232","latitude":"55.9041481018066","longitude":"-3.2067449092865","service_numbers":["11","15","15A"]},{"name":"Fairmilehead Cro","code":"36237234","latitude":"55.9023399353027","longitude":"-3.20486497879028","service_numbers":["11","15","15A"]},{"name":"Buckstone Terrac","code":"36237235","latitude":"55.9021339416504","longitude":"-3.20503497123718","service_numbers":["11","15","15A"]},{"name":"Winton Grove","code":"36237236","latitude":"55.8993835449219","longitude":"-3.20397400856018","service_numbers":["4","15","15A"]},{"name":"Swanston Avenue","code":"36237237","latitude":"55.8991661071777","longitude":"-3.20415902137756","service_numbers":["4","15","15A"]},{"name":"Fairmile Inn","code":"36237238","latitude":"55.8976745605469","longitude":"-3.20356893539429","service_numbers":["4","15","15A"]},{"name":"Fairmile Inn","code":"36237239","latitude":"55.8970069885254","longitude":"-3.2036759853363","service_numbers":["4","15","15A"]},{"name":"Maxwell Street","code":"36237242","latitude":"55.9261016845703","longitude":"-3.20934700965881","service_numbers":["5","11","15","15A","16","23","N16"]},{"name":"Morningside Park","code":"36237243","latitude":"55.9281578063965","longitude":"-3.20952296257019","service_numbers":["5","11","15","15A","16","23","N16"]},{"name":"Falcon Avenue","code":"36237246","latitude":"55.9303550720215","longitude":"-3.20986390113831","service_numbers":["5","11","15","15A","16","23","N16"]},{"name":"Churchhill","code":"36237247","latitude":"55.9325790405273","longitude":"-3.21017408370972","service_numbers":["11","15","15A","16","23","N16"]},{"name":"Holy Corner","code":"36237248","latitude":"55.9346122741699","longitude":"-3.2102370262146","service_numbers":["11","15","15A","16","23","45","N16"]},{"name":"Montpelier Park","code":"36237249","latitude":"55.9360733032227","longitude":"-3.20949792861938","service_numbers":["11","15","15A","16","23","45","N16"]},{"name":"Viewforth","code":"36237252","latitude":"55.9365463256836","longitude":"-3.20799207687378","service_numbers":["11","15","15A","16","23","45","N16"]},{"name":"Viewforth","code":"36237253","latitude":"55.9371185302734","longitude":"-3.20724105834961","service_numbers":["11","15","15A","16","23","45","N16"]},{"name":"Spring Gardens","code":"36238593","latitude":"55.9287796020508","longitude":"-3.20941495895386","service_numbers":["5","11","15","15A","16","23","N16"]},{"name":"Frederick Street","code":"36243234","latitude":"55.9512939453125","longitude":"-3.20057201385498","service_numbers":["10","11","15","15A","16","24","N16"]},{"name":"Royal Scottish A","code":"36243252","latitude":"55.9522819519043","longitude":"-3.19490098953247","service_numbers":["10","11","12","15","15A","16","26","31"]},{"name":"Tollcross","code":"36245269","latitude":"55.9428596496582","longitude":"-3.20378494262695","service_numbers":["10","11","15","15A","16","23","27","45","N16"]},{"name":"Castle Street","code":"36246256","latitude":"55.9507637023926","longitude":"-3.20331001281738","service_numbers":["10","11","12","X12","15","15A","16","24","26","X26","31","X31","N16","N26"]},{"name":"outside GAP","code":"36246267","latitude":"55.9507484436035","longitude":"-3.20483088493347","service_numbers":["1","4","15","15A","26","X26","34","44","X44","N26","N34","N44"]},{"name":"Waverley Bridge","code":"36247659","latitude":"55.9517021179199","longitude":"-3.19188809394836","service_numbers":["15A","36","41","42","67"]},{"name":"outside Jenners","code":"36253279","latitude":"55.9526329040527","longitude":"-3.19396710395813","service_numbers":["4","15","15A","24","26","X26","42","44","X44","113","N3","N11","N16","N22","N26","N30","N31","N34","N37","N44"]},{"name":"The Brae (foot)","code":"64323232","latitude":"55.844654083252","longitude":"-3.19261908531189","service_numbers":["15","15A"]},{"name":"The Brae (foot)","code":"64323234","latitude":"55.8453712463379","longitude":"-3.19296097755432","service_numbers":["15","15A"]},{"name":"The Brae (top)","code":"64323235","latitude":"55.847240447998","longitude":"-3.19197988510132","service_numbers":["15","15A"]},{"name":"The Brae (top)","code":"64323236","latitude":"55.8475379943848","longitude":"-3.19206809997559","service_numbers":["15","15A"]},{"name":"Bilston Cottages","code":"64323237","latitude":"55.8690605163574","longitude":"-3.17786502838135","service_numbers":["15","15A","40"]},{"name":"Moorfoot View","code":"64323238","latitude":"55.8689842224121","longitude":"-3.17901396751404","service_numbers":["15","15A","37","47","X37","67","N37"]},{"name":"Moorfoot View","code":"64323239","latitude":"55.8673858642578","longitude":"-3.18005204200745","service_numbers":["15","15A","37","47","X37","67","N37"]},{"name":"Ploverhall cotta","code":"64323242","latitude":"55.8639602661133","longitude":"-3.18296790122986","service_numbers":["15","15A","37","47","X37","67","N37"]},{"name":"Ploverhall Cotta","code":"64323243","latitude":"55.8629570007324","longitude":"-3.18346500396729","service_numbers":["15","15A","37","47","X37","67","N37"]},{"name":"Bush Road End","code":"64323438","latitude":"55.8688507080078","longitude":"-3.18931698799133","service_numbers":["15A","47","67"]},{"name":"Bush Road End","code":"64323439","latitude":"55.8694763183594","longitude":"-3.19034290313721","service_numbers":["15","15A"]},{"name":"Queensway","code":"64323558","latitude":"55.8364791870117","longitude":"-3.21999311447144","service_numbers":["15","15A","37","47","X37","40","67","N37"]},{"name":"Damhead Holdings","code":"64323572","latitude":"55.8796081542969","longitude":"-3.19273090362549","service_numbers":["15","15A"]},{"name":"Damhead Holdings","code":"64323573","latitude":"55.8794479370117","longitude":"-3.19247102737427","service_numbers":["15","15A"]},{"name":"A702 Damhead","code":"64323574","latitude":"55.88720703125","longitude":"-3.19779300689697","service_numbers":["15","15A"]},{"name":"Damhead","code":"64323575","latitude":"55.8873634338379","longitude":"-3.19755792617798","service_numbers":["15","15A"]},{"name":"Lothianburn Golf","code":"64323843","latitude":"55.8928031921387","longitude":"-3.20159506797791","service_numbers":["4","15","15A"]},{"name":"Golf Club for Sn","code":"64323846","latitude":"55.8922882080078","longitude":"-3.20111608505249","service_numbers":["4","15","15A"]},{"name":"Angle Park","code":"64324265","latitude":"55.8312721252441","longitude":"-3.22386908531189","service_numbers":["15","15A","37","47","X37","40","67"]},{"name":"Angle Park","code":"64324267","latitude":"55.8313179016113","longitude":"-3.22414207458496","service_numbers":["15","15A","37","47","X37","40","67","N37"]},{"name":"Beeslack High Sc","code":"64324269","latitude":"55.8412246704102","longitude":"-3.21247601509094","service_numbers":["15","15A","37","47","X37","40","67","N37"]},{"name":"Beeslack High Sc","code":"64324272","latitude":"55.8404998779297","longitude":"-3.21325206756592","service_numbers":["15","15A","37","47","X37","40","67","N37"]},{"name":"Cuiken Ave.","code":"64324283","latitude":"55.8334159851074","longitude":"-3.22253203392029","service_numbers":["15","15A","37","47","X37","40","67"]},{"name":"Cuiken Avenue","code":"64324284","latitude":"55.8339385986328","longitude":"-3.22230911254883","service_numbers":["15","15A","37","47","X37","40","67","N37"]},{"name":"Glencorse Barrac","code":"64324298","latitude":"55.8460731506348","longitude":"-3.20384311676025","service_numbers":["15","15A","37","47","X37","40","67","N37"]},{"name":"Glencorse Barrac","code":"64324323","latitude":"55.8460426330566","longitude":"-3.20419311523438","service_numbers":["15","15A","37","47","X37","40","67","N37"]},{"name":"John Street Lane","code":"64324328","latitude":"55.8302383422852","longitude":"-3.22410798072815","service_numbers":["15","15A","37","47","X37","40","67","N37"]},{"name":"Mauricewood Road","code":"64324346","latitude":"55.8386650085449","longitude":"-3.21718692779541","service_numbers":["15","15A","37","47","X37","40","67","N37"]},{"name":"Mauricewood Road","code":"64324347","latitude":"55.8393020629883","longitude":"-3.21640801429749","service_numbers":["15","15A","37","47","X37","40","67","N37"]},{"name":"Queensway","code":"64324357","latitude":"55.8355751037598","longitude":"-3.22060298919678","service_numbers":["15","15A","37","47","X37","40","67"]},{"name":"Samoa Terrace","code":"64324369","latitude":"55.8434371948242","longitude":"-3.20679593086243","service_numbers":["15","15A","37","47","X37","40","67","N37"]},{"name":"Samoa Terrace","code":"64324372","latitude":"55.8428764343262","longitude":"-3.20917391777039","service_numbers":["15","15A","37","47","X37","40","67","N37"]},{"name":"Town Centre Term","code":"64324373","latitude":"55.8279609680176","longitude":"-3.2216420173645","service_numbers":["15","15A","37","47","X37","40","67"]},{"name":"Town Centre","code":"64324374","latitude":"55.8278388977051","longitude":"-3.22152590751648","service_numbers":["15","15A","37","47","X37","40","67","N37"]},{"name":"Wilson Street","code":"64324376","latitude":"55.8292579650879","longitude":"-3.22311902046204","service_numbers":["15","15A","37","47","X37","40","67"]},{"name":"Wilson Street","code":"64324378","latitude":"55.8287200927734","longitude":"-3.22310304641724","service_numbers":["15","15A","37","47","X37","40","67","N37"]},{"name":"Langhill Farm","code":"64324532","latitude":"55.8649826049805","longitude":"-3.17198896408081","service_numbers":["15","15A","40"]},{"name":"Original Rosslyn","code":"64324534","latitude":"55.8571472167969","longitude":"-3.16424489021301","service_numbers":["15","15A","40"]},{"name":"Rosslyn Hotel","code":"64324535","latitude":"55.8573226928711","longitude":"-3.16472911834717","service_numbers":["15","15A","40"]},{"name":"Penicuik Road","code":"64324536","latitude":"55.855770111084","longitude":"-3.16739892959595","service_numbers":["15","15A","40"]},{"name":"Penicuik Road","code":"64324537","latitude":"55.8560066223145","longitude":"-3.16716599464417","service_numbers":["15","15A","40"]},{"name":"Roslin Institute","code":"64324538","latitude":"55.8612174987793","longitude":"-3.16923999786377","service_numbers":["15","15A","40"]},{"name":"Roslin Institute","code":"64324539","latitude":"55.8617782592773","longitude":"-3.1697518825531","service_numbers":["15","15A","40"]},{"name":"Springfield Plac","code":"64324542","latitude":"55.8596267700195","longitude":"-3.16815304756165","service_numbers":["15","15A","40"]},{"name":"Springfield Plac","code":"64324543","latitude":"55.8593597412109","longitude":"-3.1679859161377","service_numbers":["15","15A","40"]},{"name":"Station Road","code":"64324545","latitude":"55.8580322265625","longitude":"-3.1655490398407","service_numbers":["15","15A","40"]},{"name":"Station Road","code":"64324546","latitude":"55.8584747314453","longitude":"-3.1665210723877","service_numbers":["15","15A","40"]},{"name":"Woodend Park","code":"64324547","latitude":"55.8561477661133","longitude":"-3.17475891113281","service_numbers":["15","15A","40"]},{"name":"Woodend Park","code":"64324548","latitude":"55.8562431335449","longitude":"-3.17428207397461","service_numbers":["15","15A","40"]},{"name":"Bilston Cottages","code":"64324642","latitude":"55.8685874938965","longitude":"-3.17751598358154","service_numbers":["15","15A","40"]},{"name":"Gowkley Moss","code":"64324678","latitude":"55.8577346801758","longitude":"-3.18281102180481","service_numbers":["15","15A","40"]},{"name":"Gowkley Moss","code":"64324679","latitude":"55.8578453063965","longitude":"-3.18236708641052","service_numbers":["15","15A","40"]},{"name":"Roslin Surgery","code":"64324743","latitude":"55.8572692871094","longitude":"-3.17888307571411","service_numbers":["15","15A","40"]},{"name":"Roslin Surgery","code":"64324745","latitude":"55.857234954834","longitude":"-3.17956900596619","service_numbers":["15","15A","40"]},{"name":"Castlelaw Cresce","code":"64329289","latitude":"55.8661422729492","longitude":"-3.18135595321655","service_numbers":["15","15A","37","47","X37","67","N37"]}];