var Stops = Stops || {};Stops['69'] = [{"name":"Piersfield Terra","code":"36234268","latitude":"55.9558982849121","longitude":"-3.13954591751099","service_numbers":["15","26","45","69"]},{"name":"Moira Terrace","code":"36234269","latitude":"55.956241607666","longitude":"-3.13742589950562","service_numbers":["15","21","26","45","69","N26"]},{"name":"Fishwives Causew","code":"36234272","latitude":"55.9565582275391","longitude":"-3.13336706161499","service_numbers":["15","21","26","45","69","N26"]},{"name":"Moira Terrace","code":"36234273","latitude":"55.9569091796875","longitude":"-3.13041400909424","service_numbers":["15","21","26","45","69","N26"]},{"name":"Inchview Terrace","code":"36234274","latitude":"55.9574432373047","longitude":"-3.1257209777832","service_numbers":["15","21","26","45","69","N26"]},{"name":"Station Brae","code":"36234572","latitude":"55.9499015808105","longitude":"-3.11925601959229","service_numbers":["21","42","49","69"]},{"name":"Brighton Place","code":"36234573","latitude":"55.9514236450195","longitude":"-3.11681795120239","service_numbers":["21","42","49","69"]},{"name":"PortobelloTown H","code":"36234575","latitude":"55.9534683227539","longitude":"-3.1154990196228","service_numbers":["21","42","49","69"]},{"name":"Bridge Street","code":"36234576","latitude":"55.9549980163574","longitude":"-3.11813807487488","service_numbers":["15","21","26","40","42","45","49","69","N26"]},{"name":"Kings Road","code":"36234578","latitude":"55.9568367004395","longitude":"-3.12140989303589","service_numbers":["15","21","25","26","X26","40","42","45","49","69","113","N26"]},{"name":"Moira Terrace","code":"36234642","latitude":"55.9572448730469","longitude":"-3.12576293945312","service_numbers":["15","21","26","45","69","N26"]},{"name":"Inchview Terrace","code":"36234643","latitude":"55.9570579528809","longitude":"-3.12771201133728","service_numbers":["15","21","26","45","69","N26"]},{"name":"Moira Terrace","code":"36234645","latitude":"55.956600189209","longitude":"-3.13147807121277","service_numbers":["15","21","26","45","69","N26"]},{"name":"Fishwives Causew","code":"36234646","latitude":"55.9563293457031","longitude":"-3.134850025177","service_numbers":["15","21","26","45","69","N26"]},{"name":"Craigentinny Ave","code":"36234647","latitude":"55.9558982849121","longitude":"-3.13871288299561","service_numbers":["15","26","45","69","N26"]},{"name":"Piershill Cemete","code":"36234648","latitude":"55.9546165466309","longitude":"-3.14011693000793","service_numbers":["4","5","69"]},{"name":"Northfield","code":"36234649","latitude":"55.9529571533203","longitude":"-3.13792204856873","service_numbers":["4","5","69"]},{"name":"Northfield Squar","code":"36234683","latitude":"55.9504547119141","longitude":"-3.13639211654663","service_numbers":["4","69"]},{"name":"Northfield Farm","code":"36234684","latitude":"55.9479446411133","longitude":"-3.13670206069946","service_numbers":["4","69"]},{"name":"Duddingston Mill","code":"36234695","latitude":"55.9458312988281","longitude":"-3.13572788238525","service_numbers":["4","44","44A","X44","69","113","N44"]},{"name":"Northfield Garde","code":"36234696","latitude":"55.9484443664551","longitude":"-3.1370689868927","service_numbers":["4","69"]},{"name":"Norhtfield Avenu","code":"36234697","latitude":"55.9508094787598","longitude":"-3.13670611381531","service_numbers":["4","69"]},{"name":"Northfield","code":"36234698","latitude":"55.9528198242188","longitude":"-3.13814306259155","service_numbers":["4","5","69"]},{"name":"Northfield","code":"36234723","latitude":"55.9550704956055","longitude":"-3.14075493812561","service_numbers":["4","5","69"]},{"name":"New Bellfield","code":"36234729","latitude":"55.9477844238281","longitude":"-3.13772201538086","service_numbers":["44","44A","X44","69","113","N44"]},{"name":"Baileyfield Cres","code":"36243424","latitude":"55.9537162780762","longitude":"-3.1225860118866","service_numbers":["69"]}];